[
  {
    "name": "City Produce Company, Inc - #1",
    "city": "Ardmore",
    "state": "OK",
    "address": "202 Mill Street Southeast",
    "zip": "73401",
    "lat": 34.1686984,
    "lng": -97.1281561
  },
  {
    "name": "Piggly Wiggly 131 - #131",
    "city": "Brundidge",
    "state": "AL",
    "address": "553 North Main Street",
    "zip": "36010",
    "lat": 31.7264994,
    "lng": -85.8179672
  },
  {
    "name": "Arlan's Market - #17-San Antonio",
    "city": "San Antonio",
    "state": "TX",
    "address": "3614 Pleasanton Rd",
    "zip": "78221",
    "lat": 29.3430832,
    "lng": -98.5031976
  },
  {
    "name": "SpartanNash (Corporate Stores) - #1927",
    "city": "Fenton",
    "state": "MI",
    "address": "1390 N Leroy St",
    "zip": "48430",
    "lat": 42.8141547,
    "lng": -83.7055494
  },
  {
    "name": "SpartanNash (Corporate Stores) - #1577",
    "city": "Caledonia",
    "state": "MI",
    "address": "9375 Cherry Valley Ave SE",
    "zip": "49316",
    "lat": 42.7936693,
    "lng": -85.5086762
  },
  {
    "name": "El Rancho - #27",
    "city": "Fort Worth",
    "state": "TX",
    "address": "4812 South Freeway",
    "zip": "76115",
    "lat": 32.6760267,
    "lng": -97.3217317
  },
  {
    "name": "Greenbelt Co-Op Supermarket - Greenbelt Co-Op Supermarket",
    "city": "Greenbelt",
    "state": "MD",
    "address": "121 Centerway",
    "zip": "20770",
    "lat": 39.0018049,
    "lng": -76.8763299
  },
  {
    "name": "Piggly Wiggly - Danny Manning - #462",
    "city": "Mt Vernon",
    "state": "AL",
    "address": "19180 U.S. 43",
    "zip": "36560",
    "lat": 31.091559,
    "lng": -88.015354
  },
  {
    "name": "Piggly Wiggly 445 - #445",
    "city": "La Fayette",
    "state": "AL",
    "address": "309 9th Avenue Southwest",
    "zip": "36862",
    "lat": 32.8826002,
    "lng": -85.4089666
  },
  {
    "name": "SpartanNash (Corporate Stores) - #115",
    "city": "Wyoming",
    "state": "MI",
    "address": "2275 Health Drive Southwest",
    "zip": "49519",
    "lat": 42.8597907,
    "lng": -85.7200672
  },
  {
    "name": "Triple Fresh Market - Triple Fresh Market",
    "city": "East Fallowfield",
    "state": "PA",
    "address": "801 Doe Run Road",
    "zip": "19330",
    "lat": 39.946556,
    "lng": -75.8409987
  },
  {
    "name": "Osceola Big M - Osceola Big M",
    "city": "Osceola",
    "state": "PA",
    "address": "7732 PA-49",
    "zip": "16942",
    "lat": 41.98367,
    "lng": -77.336687
  },
  {
    "name": "Yando's Big M - Yando's Big M",
    "city": "Plattsburgh",
    "state": "NY",
    "address": "14 Skyway Shopping Center",
    "zip": "12901",
    "lat": 44.6817966,
    "lng": -73.4498268
  },
  {
    "name": "Arlan's Market - #14-New Braunfels",
    "city": "New Braunfels",
    "state": "TX",
    "address": "559 W San Antonio St",
    "zip": "78130",
    "lat": 29.6989602,
    "lng": -98.1277542
  },
  {
    "name": "Arlan's Market - #15-Schertz",
    "city": "Schertz",
    "state": "TX",
    "address": "909 Curtiss Ave",
    "zip": "78154",
    "lat": 29.5588253,
    "lng": -98.2641176
  },
  {
    "name": "Brass' Shurfine - Arcade Market Place",
    "city": "Arcade",
    "state": "NY",
    "address": "590 W Main St",
    "zip": "14009",
    "lat": 42.5329668,
    "lng": -78.4404677
  },
  {
    "name": "Reynold's Foodliner - #276",
    "city": "McRae",
    "state": "GA",
    "address": "48 East Oak Street",
    "zip": "31055",
    "lat": 32.0650674,
    "lng": -82.8943303
  },
  {
    "name": "Value Fresh Market Place - Value Fresh Market Place",
    "city": "Warren",
    "state": "MI",
    "address": "24800 Hoover Rd",
    "zip": "48089",
    "lat": 42.4764318,
    "lng": -83.0044112
  },
  {
    "name": "Ridley's Family Markets - Eagle Mountain",
    "city": "Eagle Mountain",
    "state": "UT",
    "address": "4045 Pony Express Parkway",
    "zip": "84005",
    "lat": 40.3638959,
    "lng": -111.9662221
  },
  {
    "name": "Ridley's Family Markets - Kuna",
    "city": "Kuna",
    "state": "ID",
    "address": "1403 North Meridian Road",
    "zip": "83634",
    "lat": 43.50127,
    "lng": -116.3960482
  },
  {
    "name": "Super King Markets - #5",
    "city": "Los Angeles",
    "state": "CA",
    "address": "19500 Plummer Street",
    "zip": "91324",
    "lat": 34.2421116,
    "lng": -118.5589056
  },
  {
    "name": "ARO - Overton",
    "city": "Moapa Valley",
    "state": "NV",
    "address": "350 South Moapa Valley Boulevard",
    "zip": "89040",
    "lat": 36.5379977,
    "lng": -114.4419327
  },
  {
    "name": "Gerrity's Supermarket - Meadow",
    "city": "Scranton",
    "state": "PA",
    "address": "320 Meadow Avenue",
    "zip": "18505",
    "lat": 41.3953182,
    "lng": -75.6529025
  },
  {
    "name": "B&R Stores - #2",
    "city": "Lincoln",
    "state": "NE",
    "address": "130 North 66th Street",
    "zip": "68505",
    "lat": 40.8144057,
    "lng": -96.6293406
  },
  {
    "name": "Bashas' - 041",
    "city": "Tempe",
    "state": "AZ",
    "address": "1845 North Scottsdale Road",
    "zip": "85281",
    "lat": 33.4498754,
    "lng": -111.9250165
  },
  {
    "name": "Bashas' - 082",
    "city": "Gold Canyon",
    "state": "AZ",
    "address": "5310 South Superstition Mountain Drive",
    "zip": "85118",
    "lat": 33.3665634,
    "lng": -111.4747033
  },
  {
    "name": "Yoke's Fresh Market - #16",
    "city": "Liberty Lake",
    "state": "WA",
    "address": "1233 North Liberty Lake Road",
    "zip": "99019",
    "lat": 47.6683938,
    "lng": -117.1059005
  },
  {
    "name": "Yoke's Fresh Market - #13",
    "city": "Kennewick",
    "state": "WA",
    "address": "1410 West 27th Avenue",
    "zip": "99337",
    "lat": 46.185494,
    "lng": -119.1390036
  },
  {
    "name": "SpartanNash (Corporate Stores) - #1400",
    "city": "Grand Rapids",
    "state": "MI",
    "address": "4668 Cascade Rd SE",
    "zip": "49546",
    "lat": 42.9454602,
    "lng": -85.5540427
  },
  {
    "name": "SpartanNash (Corporate Stores) - #0254",
    "city": "Grand Rapids",
    "state": "MI",
    "address": "1225 Leonard St NE",
    "zip": "49505",
    "lat": 42.9855524,
    "lng": -85.6387499
  },
  {
    "name": "Tom's Food Center - Okemos",
    "city": "Meridian Charter Township",
    "state": "MI",
    "address": "1619 West Grand River Avenue",
    "zip": "48864",
    "lat": 42.7164134,
    "lng": -84.4079101
  },
  {
    "name": "Saturn Marketplace - Saturn Marketplace",
    "city": "Dearborn Heights",
    "state": "MI",
    "address": "25200 Van Born Road",
    "zip": "48125",
    "lat": 42.2693806,
    "lng": -83.2817897
  },
  {
    "name": "SpartanNash (Corporate Stores) - #1571",
    "city": "Grand Rapids",
    "state": "MI",
    "address": "1814 Breton Rd SE",
    "zip": "49506",
    "lat": 42.9294862,
    "lng": -85.6079584
  },
  {
    "name": "Ridley's Family Markets - Hyrum",
    "city": "Hyrum",
    "state": "UT",
    "address": "780 East Main Street",
    "zip": "84319",
    "lat": 41.6327691,
    "lng": -111.8337921
  },
  {
    "name": "Ideal Market - Vinco",
    "city": "Johnstown",
    "state": "PA",
    "address": "2690 William Penn Ave",
    "zip": "15909",
    "lat": 40.4043395,
    "lng": -78.8542776
  },
  {
    "name": "SpartanNash (Corporate Stores) - #1587",
    "city": "Grand Rapids",
    "state": "MI",
    "address": "1415 Fulton St E",
    "zip": "49503",
    "lat": 42.9639574,
    "lng": -85.6356272
  },
  {
    "name": "Midtown Fresh - Midtown Fresh",
    "city": "Kalamazoo",
    "state": "MI",
    "address": "1693 South Westnedge Avenue",
    "zip": "49008",
    "lat": 42.2750223,
    "lng": -85.5892325
  },
  {
    "name": "SpartanNash (Corporate Stores) - #1903",
    "city": "Williamston",
    "state": "MI",
    "address": "151 W Grand River Ave",
    "zip": "48895",
    "lat": 42.688466,
    "lng": -84.2844138
  },
  {
    "name": "SpartanNash (Corporate Stores) - #1573",
    "city": "Grand Rapids",
    "state": "MI",
    "address": "6425 28th St SE",
    "zip": "49546",
    "lat": 42.9141612,
    "lng": -85.5094262
  },
  {
    "name": "Value Center Marketplace - Clinton TWP",
    "city": "Clinton Township",
    "state": "MI",
    "address": "37155 Harper Ave",
    "zip": "48036",
    "lat": 42.5705956,
    "lng": -82.8739889
  },
  {
    "name": "Neiman's Family Market - Clarkston",
    "city": "Independence charter Township",
    "state": "MI",
    "address": "7121 Dixie Hwy",
    "zip": "48346",
    "lat": 42.72306,
    "lng": -83.4286679
  },
  {
    "name": "Value Center Marketplace - Waterford",
    "city": "Waterford Township",
    "state": "MI",
    "address": "7300 Highland Rd",
    "zip": "48383",
    "lat": 42.6613981,
    "lng": -83.4291682
  },
  {
    "name": "Ridley's Family Markets - Wellington",
    "city": "Wellington",
    "state": "CO",
    "address": "7670 5th Street",
    "zip": "80549",
    "lat": 40.6961589,
    "lng": -105.0018911
  },
  {
    "name": "Buy for Less - #2701",
    "city": "Oklahoma City",
    "state": "OK",
    "address": "2701 Southwest 29th Street",
    "zip": "73119",
    "lat": 35.4360342,
    "lng": -97.5621345
  },
  {
    "name": "Arlan's Market - #20-Waller",
    "city": "Waller",
    "state": "TX",
    "address": "31315 Farm to Market 2920",
    "zip": "77484",
    "lat": 30.0564724,
    "lng": -95.9140501
  },
  {
    "name": "Ray's Marketplace - Ray's Marketplace",
    "city": "Linesville",
    "state": "PA",
    "address": "6131 US-6",
    "zip": "16424",
    "lat": 41.65516,
    "lng": -80.40753
  },
  {
    "name": "Steve DeYoung's Big Top Market - Big Top Market",
    "city": "Wyoming",
    "state": "MI",
    "address": "3630 Clyde Park Ave SW",
    "zip": "49509",
    "lat": 42.8977284,
    "lng": -85.6843373
  },
  {
    "name": "Shopper's Market - Shopper's Market",
    "city": "Warren",
    "state": "MI",
    "address": "14350 East 9 Mile Road",
    "zip": "48089",
    "lat": 42.4632697,
    "lng": -82.9752733
  },
  {
    "name": "G.E. Foodland - #06",
    "city": "Arlington",
    "state": "TX",
    "address": "550 West Randol Mill Road",
    "zip": "76011",
    "lat": 32.7497269,
    "lng": -97.1126849
  },
  {
    "name": "Hollywood Markets - Royal Oak",
    "city": "Royal Oak",
    "state": "MI",
    "address": "714 N Main St",
    "zip": "48067",
    "lat": 42.4954913,
    "lng": -83.1440444
  },
  {
    "name": "SpartanNash (Corporate Stores) - #1921",
    "city": "Fenton",
    "state": "MI",
    "address": "18005 Silver Pkwy",
    "zip": "48430",
    "lat": 42.7929998,
    "lng": -83.7379825
  },
  {
    "name": "SpartanNash (Corporate Stores) - #0408",
    "city": "Sparta",
    "state": "MI",
    "address": "565 S State St",
    "zip": "49345",
    "lat": 43.1479739,
    "lng": -85.711692
  },
  {
    "name": "SpartanNash (Corporate Stores) - #1572",
    "city": "Rockford",
    "state": "MI",
    "address": "201 Marcell Dr NE",
    "zip": "49341",
    "lat": 43.1147754,
    "lng": -85.5472167
  },
  {
    "name": "Orchard Markets - Fruitport",
    "city": "Fruitport Charter Township",
    "state": "MI",
    "address": "6530 Airline Hwy",
    "zip": "49415",
    "lat": 43.1334066,
    "lng": -86.1546541
  },
  {
    "name": "Saturn Super Foods - Saturn Super Foods",
    "city": "Detroit",
    "state": "MI",
    "address": "20221 Joy Rd",
    "zip": "48228",
    "lat": 42.3571149,
    "lng": -83.2389742
  },
  {
    "name": "SpartanNash (Corporate Stores) - #1980",
    "city": "Paw Paw",
    "state": "MI",
    "address": "847 S Kalamazoo St",
    "zip": "49079",
    "lat": 42.2082426,
    "lng": -85.8893953
  },
  {
    "name": "Roger's Foodland - Roger's Foodland",
    "city": "St. Joseph",
    "state": "MI",
    "address": "4039 Hollywood Rd",
    "zip": "49085",
    "lat": 42.0450298,
    "lng": -86.4533607
  },
  {
    "name": "Prattsburgh Marketplace - Prattsburgh Marketplace",
    "city": "Prattsburgh",
    "state": "NY",
    "address": "2 S Main St",
    "zip": "14873",
    "lat": 42.523407,
    "lng": -77.289377
  },
  {
    "name": "Hegedorns Market - Hegedorns Market",
    "city": "Webster",
    "state": "NY",
    "address": "964 Ridge Rd",
    "zip": "14580",
    "lat": 43.2088862,
    "lng": -77.4624631
  },
  {
    "name": "SpartanNash (Corporate Stores) - #0119",
    "city": "Byron Center",
    "state": "MI",
    "address": "2245 84th St SW",
    "zip": "49315",
    "lat": 42.814293,
    "lng": -85.7197048
  },
  {
    "name": "Hollywood Markets - Troy",
    "city": "Troy",
    "state": "MI",
    "address": "2670 W Maple Rd",
    "zip": "48084",
    "lat": 42.5481022,
    "lng": -83.1817311
  },
  {
    "name": "SpartanNash (Corporate Stores) - #1930",
    "city": "Davison",
    "state": "MI",
    "address": "8503 Davison Rd",
    "zip": "48423",
    "lat": 43.0356255,
    "lng": -83.5378532
  },
  {
    "name": "Neiman's Family Market - St. Clair",
    "city": "Saint Clair",
    "state": "MI",
    "address": "1167 S Carney Dr",
    "zip": "48079",
    "lat": 42.81959,
    "lng": -82.5035305
  },
  {
    "name": "SpartanNash (Corporate Stores) - #1920",
    "city": "Howell",
    "state": "MI",
    "address": "2400 W Grand River Ave",
    "zip": "48843",
    "lat": 42.6161953,
    "lng": -83.9613889
  },
  {
    "name": "Bashas' - 148",
    "city": "Phoenix",
    "state": "AZ",
    "address": "3205 East McDowell Road",
    "zip": "85008",
    "lat": 33.4651765,
    "lng": -112.0115875
  },
  {
    "name": "Ridley's Family Markets - Gypsum",
    "city": "Gypsum",
    "state": "CO",
    "address": "210 Crest Wood Drive",
    "zip": "81637",
    "lat": 39.6467773,
    "lng": -106.9462825
  },
  {
    "name": "G.E. Foodland - #07",
    "city": "Arlington",
    "state": "TX",
    "address": "1655 New York Avenue",
    "zip": "76010",
    "lat": 32.7182619,
    "lng": -97.0798914
  },
  {
    "name": "Buy for Less - #1205",
    "city": "Norman",
    "state": "OK",
    "address": "1205 East Lindsey Street",
    "zip": "73071",
    "lat": 35.2041716,
    "lng": -97.4232462
  },
  {
    "name": "Matti's Fresh Market - Matti's Fresh Market",
    "city": "Milford Charter Township",
    "state": "MI",
    "address": "965 E Summit St",
    "zip": "48381",
    "lat": 42.5961946,
    "lng": -83.5891861
  },
  {
    "name": "Piggly Wiggly 81 - #81",
    "city": "Berry",
    "state": "AL",
    "address": "17884 Alabama 18",
    "zip": "35546",
    "lat": 33.6590726,
    "lng": -87.6020938
  },
  {
    "name": "ARO - Sandy",
    "city": "Sandy",
    "state": "UT",
    "address": "7850 South 1300 East",
    "zip": "84094",
    "lat": 40.6089489,
    "lng": -111.8550456
  },
  {
    "name": "Tom's Food Center - Portland",
    "city": "Portland",
    "state": "MI",
    "address": "1462 E Grand River Ave",
    "zip": "48875",
    "lat": 42.8620332,
    "lng": -84.8882221
  },
  {
    "name": "Bashas' - 143",
    "city": "Phoenix",
    "state": "AZ",
    "address": "4430 East McDowell Road",
    "zip": "85008",
    "lat": 33.4657721,
    "lng": -111.9856707
  },
  {
    "name": "Main Street Market - Main Street Market",
    "city": "Scottsbluff",
    "state": "NE",
    "address": "401 South Beltline Highway West",
    "zip": "69361",
    "lat": 41.8549668,
    "lng": -103.6684159
  },
  {
    "name": "SpartanNash (Corporate Stores) - #265",
    "city": "Grand Rapids",
    "state": "MI",
    "address": "6127 Kalamazoo Ave SE",
    "zip": "49508",
    "lat": 42.8524573,
    "lng": -85.6266241
  },
  {
    "name": "Fareway Stores - 989",
    "city": "Waukee",
    "state": "IA",
    "address": "200 Southeast Laurel Street",
    "zip": "50263",
    "lat": 41.6115285,
    "lng": -93.8421241
  },
  {
    "name": "Hollywood Markets - Bloomfield",
    "city": "Bloomfield Hills",
    "state": "MI",
    "address": "1525 S Opdyke Rd",
    "zip": "48304",
    "lat": 42.6194088,
    "lng": -83.2467533
  },
  {
    "name": "Fareway Stores - 155",
    "city": "Huxley",
    "state": "IA",
    "address": "911 U.S. 69",
    "zip": "50124",
    "lat": 41.9016108,
    "lng": -93.6087222
  },
  {
    "name": "Ridley's Family Markets - Casper Wy Blvd",
    "city": "Casper",
    "state": "WY",
    "address": "300 Wyoming Boulevard Southeast",
    "zip": "82609",
    "lat": 42.8480207,
    "lng": -106.2718329
  },
  {
    "name": "Fareway Stores - 902",
    "city": "Hampton",
    "state": "IA",
    "address": "309 Central Avenue West",
    "zip": "50441",
    "lat": 42.7424334,
    "lng": -93.2118798
  },
  {
    "name": "El Rancho - #40",
    "city": "Irving",
    "state": "TX",
    "address": "3535 North Belt Line Road",
    "zip": "75062",
    "lat": 32.8545693,
    "lng": -96.9927095
  },
  {
    "name": "Gerald Hocker - G&E Supermarket",
    "city": "Bethany Beach",
    "state": "DE",
    "address": "695 Bethany Loop",
    "zip": "19930",
    "lat": 38.5545818,
    "lng": -75.0825595
  },
  {
    "name": "ARO - Lehi",
    "city": "Lehi",
    "state": "UT",
    "address": "760 East Main Street",
    "zip": "84043",
    "lat": 40.3864366,
    "lng": -111.8372958
  },
  {
    "name": "SpartanNash (Corporate Stores) - #339",
    "city": "Grand Rapids",
    "state": "MI",
    "address": "2755 Lake Michigan Drive Northwest",
    "zip": "49504",
    "lat": 42.9725523,
    "lng": -85.7359667
  },
  {
    "name": "Fareway Stores - 788",
    "city": "Spencer",
    "state": "IA",
    "address": "104 East 8th Street",
    "zip": "51301",
    "lat": 43.1455087,
    "lng": -95.1427996
  },
  {
    "name": "Heartland Marketplace - Westland",
    "city": "Westland",
    "state": "MI",
    "address": "34414 Ford Rd",
    "zip": "48185",
    "lat": 42.3260093,
    "lng": -83.3804201
  },
  {
    "name": "B&R Stores - #12",
    "city": "Council Bluffs",
    "state": "IA",
    "address": "1141 North Broadway",
    "zip": "51503",
    "lat": 41.2710199,
    "lng": -95.8353233
  },
  {
    "name": "Blair's Market - Powell",
    "city": "Powell",
    "state": "WY",
    "address": "331 West Coulter Avenue",
    "zip": "82435",
    "lat": 44.7508545,
    "lng": -108.762631
  },
  {
    "name": "Fareway Stores - 502",
    "city": "Cherokee",
    "state": "IA",
    "address": "205 West Bluff Street",
    "zip": "51012",
    "lat": 42.7540576,
    "lng": -95.5519662
  },
  {
    "name": "Fareway Stores - 594",
    "city": "Manchester",
    "state": "IA",
    "address": "109 East Marion Street",
    "zip": "52057",
    "lat": 42.481561,
    "lng": -91.4571387
  },
  {
    "name": "ARO - American Fork",
    "city": "American Fork",
    "state": "UT",
    "address": "135 East Main Street",
    "zip": "84003",
    "lat": 40.3783425,
    "lng": -111.795189
  },
  {
    "name": "Bashas' - 137",
    "city": "Surprise",
    "state": "AZ",
    "address": "15367 West Waddell Road",
    "zip": "85379",
    "lat": 33.6086882,
    "lng": -112.3919115
  },
  {
    "name": "Ridley's Family Markets - Rupert",
    "city": "Rupert",
    "state": "ID",
    "address": "310 Oneida Street",
    "zip": "83350",
    "lat": 42.6147872,
    "lng": -113.6714428
  },
  {
    "name": "Fareway Stores - 790",
    "city": "Harlan",
    "state": "IA",
    "address": "1910 23rd Street",
    "zip": "51537",
    "lat": 41.6499191,
    "lng": -95.3384382
  },
  {
    "name": "Jubilee Foods - Jubilee Foods",
    "city": "Delta",
    "state": "UT",
    "address": "377 West Main Street",
    "zip": "84624",
    "lat": 39.3518394,
    "lng": -112.5832694
  },
  {
    "name": "Nel's Bi-Lo Market - Nel's Bi-Lo Market",
    "city": "Pocatello",
    "state": "ID",
    "address": "333 North 15th Avenue",
    "zip": "83201",
    "lat": 42.8746385,
    "lng": -112.4357889
  },
  {
    "name": "Bashas' - 130",
    "city": "Litchfield Park",
    "state": "AZ",
    "address": "5115 North Dysart Road",
    "zip": "85340",
    "lat": 33.5096447,
    "lng": -112.3391789
  },
  {
    "name": "Bashas' - 016",
    "city": "Scottsdale",
    "state": "AZ",
    "address": "8423 East McDonald Drive",
    "zip": "85250",
    "lat": 33.5238978,
    "lng": -111.899615
  },
  {
    "name": "Great Giant Supermarket - Great Giant Supermarket",
    "city": "Grand Rapids",
    "state": "MI",
    "address": "1226 Madison Ave SE",
    "zip": "49507",
    "lat": 42.9405407,
    "lng": -85.6578061
  },
  {
    "name": "Fareway Stores - 909",
    "city": "Ankeny",
    "state": "IA",
    "address": "109 Southeast Oralabor Road",
    "zip": "50021",
    "lat": 41.7021038,
    "lng": -93.59978
  },
  {
    "name": "Hayes' Market - Hayes' Market",
    "city": "Waymart",
    "state": "PA",
    "address": "686 Roosevelt Hwy",
    "zip": "18472",
    "lat": 41.5887458,
    "lng": -75.4036066
  },
  {
    "name": "Fareway Stores - 138",
    "city": "Pleasant Hill",
    "state": "IA",
    "address": "5500 East University Avenue",
    "zip": "50327",
    "lat": 41.5999251,
    "lng": -93.505629
  },
  {
    "name": "Fareway Stores - 089",
    "city": "Stewartville",
    "state": "MN",
    "address": "2012 2nd Avenue Northeast",
    "zip": "55976",
    "lat": 43.8715857,
    "lng": -92.4858328
  },
  {
    "name": "ARO - Pleasant Grove",
    "city": "Pleasant Grove",
    "state": "UT",
    "address": "931 West State Road",
    "zip": "84062",
    "lat": 40.3682041,
    "lng": -111.7605535
  },
  {
    "name": "Nell's Market - Nell's Market",
    "city": "York",
    "state": "PA",
    "address": "2720 South Queen Street",
    "zip": "17403",
    "lat": 39.9069344,
    "lng": -76.6811789
  },
  {
    "name": "Piggly Wiggly 5, 18, 29 - #29",
    "city": "Aberdeen",
    "state": "MS",
    "address": "201 East Washington Street",
    "zip": "39730",
    "lat": 33.8238985,
    "lng": -88.542318
  },
  {
    "name": "El Rancho - #26",
    "city": "Garland",
    "state": "TX",
    "address": "1540 South 1st Street",
    "zip": "75040",
    "lat": 32.8985778,
    "lng": -96.6299197
  },
  {
    "name": "Bashas' - 123",
    "city": "Mesa",
    "state": "AZ",
    "address": "822 South Alma School Road",
    "zip": "85210",
    "lat": 33.3996556,
    "lng": -111.8570252
  },
  {
    "name": "Vegas Food Center - Vegas Food Center",
    "city": "Harper Woods",
    "state": "MI",
    "address": "19700 Kelly Rd",
    "zip": "48225",
    "lat": 42.4406463,
    "lng": -82.9477191
  },
  {
    "name": "Dave's Marketplace - Dave's Marketplace",
    "city": "Warren",
    "state": "MI",
    "address": "22700 Ryan Rd",
    "zip": "48091",
    "lat": 42.4607214,
    "lng": -83.0624807
  },
  {
    "name": "Bashas' - 104",
    "city": "Phoenix",
    "state": "AZ",
    "address": "3202 East Greenway Road",
    "zip": "85032",
    "lat": 33.6275895,
    "lng": -112.0113666
  },
  {
    "name": "Fareway Stores - 998",
    "city": "Muscatine",
    "state": "IA",
    "address": "2100 Cedar Plaza Drive",
    "zip": "52761",
    "lat": 41.4356271,
    "lng": -91.082788
  },
  {
    "name": "LaGree's Food Stores - Poncha Springs",
    "city": "Salida",
    "state": "CO",
    "address": "10100 U.S. 50",
    "zip": "81201",
    "lat": 38.5156369,
    "lng": -106.0735141
  },
  {
    "name": "Bashas' - 052",
    "city": "Catalina",
    "state": "AZ",
    "address": "15310 North Oracle Road",
    "zip": "85739",
    "lat": 32.4834794,
    "lng": -110.9202894
  },
  {
    "name": "Bashas' - 051",
    "city": "Mesa",
    "state": "AZ",
    "address": "1122 North Higley Road",
    "zip": "85205",
    "lat": 33.4360486,
    "lng": -111.7209599
  },
  {
    "name": "Fareway Stores - 850",
    "city": "Spirit Lake",
    "state": "IA",
    "address": "1906 Keokuk Avenue",
    "zip": "51360",
    "lat": 43.4212184,
    "lng": -95.1068941
  },
  {
    "name": "G.E. Foodland - #52",
    "city": "Fort Worth",
    "state": "TX",
    "address": "1212 South Ayers Avenue",
    "zip": "76105",
    "lat": 32.7322143,
    "lng": -97.2725349
  },
  {
    "name": "Fareway Stores - 022",
    "city": "Sioux City",
    "state": "IA",
    "address": "4040 War Eagle Drive",
    "zip": "51109",
    "lat": 42.4945721,
    "lng": -96.4620821
  },
  {
    "name": "Fareway Stores - 147",
    "city": "Carlisle",
    "state": "IA",
    "address": "1115 Bluestem Drive",
    "zip": "50047",
    "lat": 41.498438,
    "lng": -93.499436
  },
  {
    "name": "Heartland Marketplace - Farmington Hills",
    "city": "Farmington Hills",
    "state": "MI",
    "address": "33250 West 12 Mile Road",
    "zip": "48334",
    "lat": 42.4988549,
    "lng": -83.3766812
  },
  {
    "name": "Logan's Market - Vale",
    "city": "Vale",
    "state": "OR",
    "address": "250 10th Street North",
    "zip": "97918",
    "lat": 43.9835011,
    "lng": -117.2348974
  },
  {
    "name": "Arlan's Market - #5-Galveston",
    "city": "Galveston",
    "state": "TX",
    "address": "513 Market St",
    "zip": "77550",
    "lat": 29.310112,
    "lng": -94.7734465
  },
  {
    "name": "El Ahorro Supermarket - La Michoacana #7",
    "city": "San Antonio",
    "state": "TX",
    "address": "13107 Nacogdoches Road",
    "zip": "78217",
    "lat": 29.560765,
    "lng": -98.395249
  },
  {
    "name": "Fareway Stores - 988",
    "city": "Moline",
    "state": "IL",
    "address": "3705 25th Street",
    "zip": "61265",
    "lat": 41.475103,
    "lng": -90.5026755
  },
  {
    "name": "Stokes Market  - Aberdeen",
    "city": "Aberdeen",
    "state": "ID",
    "address": "185 North Main Street",
    "zip": "83210",
    "lat": 42.9459645,
    "lng": -112.8398462
  },
  {
    "name": "Food For Less PC - 283",
    "city": "Tallahassee",
    "state": "FL",
    "address": "3813 North Monroe Street",
    "zip": "32303",
    "lat": 30.5013544,
    "lng": -84.3285867
  },
  {
    "name": "Piggly Wiggly 109 - #109",
    "city": "Stonewall",
    "state": "MS",
    "address": "323 Erwin Road",
    "zip": "39363",
    "lat": 32.1352885,
    "lng": -88.7893457
  },
  {
    "name": "Fareway Stores - 153",
    "city": "West Des Moines",
    "state": "IA",
    "address": "329 Grand Avenue",
    "zip": "50265",
    "lat": 41.5836892,
    "lng": -93.7068322
  },
  {
    "name": "Fareway Stores - 106",
    "city": "Clive",
    "state": "IA",
    "address": "10151 University Avenue",
    "zip": "50325",
    "lat": 41.6030894,
    "lng": -93.7569116
  },
  {
    "name": "SpartanNash (Corporate Stores) - #0137",
    "city": "Allendale Charter Township",
    "state": "MI",
    "address": "6370 Lake Michigan Dr",
    "zip": "49401",
    "lat": 42.9710014,
    "lng": -85.9424458
  },
  {
    "name": "Fareway Stores - 597",
    "city": "Creston",
    "state": "IA",
    "address": "105 East Adams Street",
    "zip": "50801",
    "lat": 41.0582483,
    "lng": -94.3606078
  },
  {
    "name": "Fareway Stores - 014",
    "city": "Sergeant Bluff",
    "state": "IA",
    "address": "700 1st Street",
    "zip": "51054",
    "lat": 42.4001546,
    "lng": -96.3526883
  },
  {
    "name": "Valley Market - Eden",
    "city": "Eden",
    "state": "UT",
    "address": "2555 Wolf Creek Drive",
    "zip": "84310",
    "lat": 41.3167127,
    "lng": -111.8254945
  },
  {
    "name": "Bashas' - 031",
    "city": "Crownpoint",
    "state": "NM",
    "address": "Navajo Service Rte 9",
    "zip": "87313",
    "lat": 35.697631,
    "lng": -108.141587
  },
  {
    "name": "Hollywood Markets - Madison Heights",
    "city": "Madison Heights",
    "state": "MI",
    "address": "29200 N Campbell Rd",
    "zip": "48071",
    "lat": 42.5072005,
    "lng": -83.1241862
  },
  {
    "name": "Park Street Market - Park Street Market",
    "city": "Kalamazoo",
    "state": "MI",
    "address": "512 N Park St",
    "zip": "49007",
    "lat": 42.2961478,
    "lng": -85.586694
  },
  {
    "name": "Arlan's Market - #8-Crosby",
    "city": "Crosby",
    "state": "TX",
    "address": "6500 FM 2100 #1",
    "zip": "77532",
    "lat": 29.9176557,
    "lng": -95.069588
  },
  {
    "name": "Velasquez Group L.P. - Hinton",
    "city": "Hinton",
    "state": "OK",
    "address": "220 West Main Street",
    "zip": "73047",
    "lat": 35.4716292,
    "lng": -98.3573164
  },
  {
    "name": "ARO - Granger",
    "city": "Salt Lake City",
    "state": "UT",
    "address": "3555 West 3500 South",
    "zip": "84119",
    "lat": 40.6949929,
    "lng": -111.975214
  },
  {
    "name": "Buy for Less - #3713",
    "city": "Oklahoma City",
    "state": "OK",
    "address": "3713 South Western Avenue",
    "zip": "73109",
    "lat": 35.4268249,
    "lng": -97.5302327
  },
  {
    "name": "Fareway Stores - 703",
    "city": "Humboldt",
    "state": "IA",
    "address": "1700 10th Avenue North",
    "zip": "50548",
    "lat": 42.731849,
    "lng": -94.2332403
  },
  {
    "name": "Fareway Stores - 900",
    "city": "Des Moines",
    "state": "IA",
    "address": "100 East Euclid Avenue",
    "zip": "50313",
    "lat": 41.6291345,
    "lng": -93.6186524
  },
  {
    "name": "Ideal Market - Seward",
    "city": "Seward",
    "state": "PA",
    "address": "6858 PA-711",
    "zip": "15954",
    "lat": 40.4054559,
    "lng": -79.0215958
  },
  {
    "name": "Bashas' - 099",
    "city": "Scottsdale",
    "state": "AZ",
    "address": "10111 East Bell Road",
    "zip": "85260",
    "lat": 33.6384486,
    "lng": -111.8636589
  },
  {
    "name": "LaGree's Food Stores - Mesa",
    "city": "Pueblo",
    "state": "CO",
    "address": "27050 U.S. 50",
    "zip": "81006",
    "lat": 38.2749485,
    "lng": -104.5004212
  },
  {
    "name": "Arlan's Market - #2-Seabrook",
    "city": "Seabrook",
    "state": "TX",
    "address": "4614 E NASA Pkwy",
    "zip": "77586",
    "lat": 29.5666462,
    "lng": -95.0597352
  },
  {
    "name": "T&D Food Market - T&D Food Market",
    "city": "Santa Rosa",
    "state": "NM",
    "address": "2866 Route 66",
    "zip": "88435",
    "lat": 34.9456606,
    "lng": -104.6597358
  },
  {
    "name": "Garden Fresh Marketplace - Garden Fresh Marketplace",
    "city": "Detroit",
    "state": "MI",
    "address": "6680 Michigan Ave",
    "zip": "48210",
    "lat": 42.3314508,
    "lng": -83.1261555
  },
  {
    "name": "Orchard Markets - Spring Lake",
    "city": "Spring Lake",
    "state": "MI",
    "address": "17026 Lloyds Bayou Dr",
    "zip": "49456",
    "lat": 43.0776458,
    "lng": -86.1722422
  },
  {
    "name": "KAS Market Fresh - KAS Market Fresh",
    "city": "Carleton",
    "state": "MI",
    "address": "12599 Grafton Road",
    "zip": "48117",
    "lat": 42.0579464,
    "lng": -83.3802154
  },
  {
    "name": "Piggly Wiggly 101 - #101",
    "city": "Hilton Head Island",
    "state": "SC",
    "address": "1 N Forest Beach Dr",
    "zip": "29928",
    "lat": 32.1438826,
    "lng": -80.7509551
  },
  {
    "name": "El Ahorro Supermarket - #3",
    "city": "Bellaire",
    "state": "TX",
    "address": "5859 Bissonnet St",
    "zip": "77401",
    "lat": 29.6986673,
    "lng": -95.4835158
  },
  {
    "name": "Arlan's Market - #23-Cameron",
    "city": "Cameron",
    "state": "TX",
    "address": "705 N Travis Ave",
    "zip": "76520",
    "lat": 30.8558338,
    "lng": -96.9756531
  },
  {
    "name": "Arlan's Market - #25-Austin",
    "city": "Austin",
    "state": "TX",
    "address": "7108 Woodrow Ave",
    "zip": "78757",
    "lat": 30.343137,
    "lng": -97.7257495
  },
  {
    "name": "Arlan's Market - #28-Freeport",
    "city": "Freeport",
    "state": "TX",
    "address": "301 S Brazosport Blvd",
    "zip": "77541",
    "lat": 28.9577822,
    "lng": -95.3752459
  },
  {
    "name": "SpartanNash (Corporate Stores) - #1580",
    "city": "Wyoming",
    "state": "MI",
    "address": "2900 Burlingame Ave SW",
    "zip": "49509",
    "lat": 42.9115993,
    "lng": -85.7036486
  },
  {
    "name": "Darrell's Market - Darrell's Market",
    "city": "Mason",
    "state": "MI",
    "address": "4520 W Columbia Rd",
    "zip": "48854",
    "lat": 42.5828888,
    "lng": -84.5239392
  },
  {
    "name": "SpartanNash (Corporate Stores) - #0123",
    "city": "Holland",
    "state": "MI",
    "address": "1185 S Washington Ave",
    "zip": "49423",
    "lat": 42.7469472,
    "lng": -86.1157205
  },
  {
    "name": "Ream's Food Stores - #8",
    "city": "Magna",
    "state": "UT",
    "address": "7235 West 3500 South",
    "zip": "84044",
    "lat": 40.6951764,
    "lng": -112.0641136
  },
  {
    "name": "Fenn Foods - Roswell - South",
    "city": "Roswell",
    "state": "NM",
    "address": "800 West Hobbs Street",
    "zip": "88203",
    "lat": 33.3724438,
    "lng": -104.5309198
  },
  {
    "name": "Vinckier Foods - Almont",
    "city": "Almont",
    "state": "MI",
    "address": "4545 Van Dyke Rd",
    "zip": "48003",
    "lat": 42.9336483,
    "lng": -83.0524145
  },
  {
    "name": "Hollywood Markets - Rochester Hills",
    "city": "Rochester Hills",
    "state": "MI",
    "address": "48306 1495",
    "zip": "48307",
    "lat": 42.6950748,
    "lng": -83.1355586
  },
  {
    "name": "Sage Market - Sage Market",
    "city": "Laingsburg",
    "state": "MI",
    "address": "7400 Woodbury Rd",
    "zip": "48848",
    "lat": 42.8843158,
    "lng": -84.340771
  },
  {
    "name": "Piggly Wiggly - Danny Manning - #473",
    "city": "Fairhope",
    "state": "AL",
    "address": "100 Plantation Pointe Road",
    "zip": "36532",
    "lat": 30.525431,
    "lng": -87.8852525
  },
  {
    "name": "Reynold's Foodliner - #275",
    "city": "Adel",
    "state": "GA",
    "address": "714 West 4th Street",
    "zip": "31620",
    "lat": 31.1359188,
    "lng": -83.4327296
  },
  {
    "name": "Fareway Stores - 888",
    "city": "Jefferson",
    "state": "IA",
    "address": "1207 North Elm Street",
    "zip": "50129",
    "lat": 42.0268684,
    "lng": -94.3766688
  },
  {
    "name": "Piggly Wiggly 311 - #311",
    "city": "Bonifay",
    "state": "FL",
    "address": "911 North Waukesha Street",
    "zip": "32425",
    "lat": 30.800877,
    "lng": -85.6802187
  },
  {
    "name": "El Rancho - #37",
    "city": "Garland",
    "state": "TX",
    "address": "3460 West Walnut Street",
    "zip": "75042",
    "lat": 32.9160041,
    "lng": -96.6815307
  },
  {
    "name": "El Rancho - #34",
    "city": "Houston",
    "state": "TX",
    "address": "5264 West 34th Street",
    "zip": "77092",
    "lat": 29.8206907,
    "lng": -95.4654526
  },
  {
    "name": "Rockdale Grocery - #323",
    "city": "Dillard",
    "state": "GA",
    "address": "7110 US-441 South",
    "zip": "30537",
    "lat": 34.9774169,
    "lng": -83.3826028
  },
  {
    "name": "Fareway Stores - 073",
    "city": "Council Bluffs",
    "state": "IA",
    "address": "310 McKenzie Avenue",
    "zip": "51503",
    "lat": 41.2799944,
    "lng": -95.8194526
  },
  {
    "name": "Fareway Stores - 912",
    "city": "Sioux Center",
    "state": "IA",
    "address": "115 1st Avenue Northwest",
    "zip": "51250",
    "lat": 43.07786,
    "lng": -96.177807
  },
  {
    "name": "Fareway Stores - 059",
    "city": "Geneseo",
    "state": "IL",
    "address": "540 Prichard Drive",
    "zip": "61254",
    "lat": 41.4394248,
    "lng": -90.146943
  },
  {
    "name": "Fareway Stores - 657",
    "city": "Indianola",
    "state": "IA",
    "address": "1309 West 2nd Avenue",
    "zip": "50125",
    "lat": 41.3558704,
    "lng": -93.5795293
  },
  {
    "name": "Fareway Stores - 829",
    "city": "Sioux City",
    "state": "IA",
    "address": "4267 Sergeant Road",
    "zip": "51106",
    "lat": 42.450376,
    "lng": -96.3540995
  },
  {
    "name": "Super One Foods - 520",
    "city": "Grand Rapids",
    "state": "MN",
    "address": "503 Northwest 4th Street",
    "zip": "55744",
    "lat": 47.2364101,
    "lng": -93.5362881
  },
  {
    "name": "Fareway Stores - 951",
    "city": "Waterloo",
    "state": "IA",
    "address": "40 West San Marnan Drive",
    "zip": "50701",
    "lat": 42.4588341,
    "lng": -92.3581495
  },
  {
    "name": "Fareway Stores - 491",
    "city": "Mason City",
    "state": "IA",
    "address": "400 North Delaware Avenue",
    "zip": "50401",
    "lat": 43.156187,
    "lng": -93.2006426
  },
  {
    "name": "Fareway Stores - 099",
    "city": "Worthington",
    "state": "MN",
    "address": "1028 Ryan's Road",
    "zip": "56187",
    "lat": 43.6340318,
    "lng": -95.6018583
  },
  {
    "name": "Fareway Stores - 124",
    "city": "Adel",
    "state": "IA",
    "address": "804 Nile Kinnick Drive South",
    "zip": "50003",
    "lat": 41.6099659,
    "lng": -94.017954
  },
  {
    "name": "Fareway Stores - 139",
    "city": "Owatonna",
    "state": "MN",
    "address": "831 South Oak Avenue",
    "zip": "55060",
    "lat": 44.0763171,
    "lng": -93.2273341
  },
  {
    "name": "Fareway Stores - 407",
    "city": "Estherville",
    "state": "IA",
    "address": "1108 East Central Avenue",
    "zip": "51334",
    "lat": 43.4014773,
    "lng": -94.8300928
  },
  {
    "name": "Fareway Stores - 840",
    "city": "Monticello",
    "state": "IA",
    "address": "420 North Farley Street",
    "zip": "52310",
    "lat": 42.241801,
    "lng": -91.19142
  },
  {
    "name": "Roxy's Market - Roxy's Market",
    "city": "Big Sky",
    "state": "MT",
    "address": "20 Huntley Drive",
    "zip": "59716",
    "lat": 45.2606657,
    "lng": -111.3026618
  },
  {
    "name": "Bashas' - 077",
    "city": "Tucson",
    "state": "AZ",
    "address": "2950 South 6th Avenue",
    "zip": "85713",
    "lat": 32.1893099,
    "lng": -110.970968
  },
  {
    "name": "Logan's Venture Foods - Tonkawa Venture Foods",
    "city": "Tonkawa",
    "state": "OK",
    "address": "1315 North Main Street",
    "zip": "74653",
    "lat": 36.6934057,
    "lng": -97.3106743
  },
  {
    "name": "Super King Markets - #6",
    "city": "Los Angeles",
    "state": "CA",
    "address": "7227 Van Nuys Boulevard",
    "zip": "91405",
    "lat": 34.2022455,
    "lng": -118.450563
  },
  {
    "name": "ARO - South Ogden",
    "city": "Ogden",
    "state": "UT",
    "address": "5691 Harrison Boulevard",
    "zip": "84403",
    "lat": 41.1597371,
    "lng": -111.9420022
  },
  {
    "name": "Ridley's Family Markets - Jerome",
    "city": "Jerome",
    "state": "ID",
    "address": "1016 South Lincoln Avenue",
    "zip": "83338",
    "lat": 42.7145278,
    "lng": -114.517051
  },
  {
    "name": "Red Apple Market Place - Red Apple Market Place",
    "city": "Ontario",
    "state": "OR",
    "address": "555 Southwest 4th Avenue",
    "zip": "97914",
    "lat": 44.024653,
    "lng": -116.9707229
  },
  {
    "name": "Fareway Stores - 062",
    "city": "Waukon",
    "state": "IA",
    "address": "777 11th Avenue Southwest",
    "zip": "52172",
    "lat": 43.2578943,
    "lng": -91.4840377
  },
  {
    "name": "Shoppin' Baskit - Coleman",
    "city": "Coleman",
    "state": "TX",
    "address": "113 West College Avenue",
    "zip": "76834",
    "lat": 31.82854,
    "lng": -99.4237808
  },
  {
    "name": "Fareway Stores - 980",
    "city": "Knoxville",
    "state": "IA",
    "address": "1308 South Lincoln Street",
    "zip": "50138",
    "lat": 41.3081786,
    "lng": -93.1104695
  },
  {
    "name": "Fareway Stores - 426",
    "city": "Nevada",
    "state": "IA",
    "address": "1505 South B Avenue",
    "zip": "50201",
    "lat": 42.0105693,
    "lng": -93.4395808
  },
  {
    "name": "Fareway Stores - 995",
    "city": "Pella",
    "state": "IA",
    "address": "2010 Washington Street",
    "zip": "50219",
    "lat": 41.4133064,
    "lng": -92.9417892
  },
  {
    "name": "Fareway Stores - 467",
    "city": "Marshalltown",
    "state": "IA",
    "address": "102 West Anson Street",
    "zip": "50158",
    "lat": 42.0374277,
    "lng": -92.9146306
  },
  {
    "name": "Shoppin' Baskit - Ballinger",
    "city": "Ballinger",
    "state": "TX",
    "address": "610 Hutchins Avenue",
    "zip": "76821",
    "lat": 31.7394925,
    "lng": -99.9456193
  },
  {
    "name": "Piggly Wiggly - Danny Manning - #469",
    "city": "Mobile",
    "state": "AL",
    "address": "2312 Saint Stephens Road",
    "zip": "36617",
    "lat": 30.7186333,
    "lng": -88.0833421
  },
  {
    "name": "Fareway Stores - 462",
    "city": "Vinton",
    "state": "IA",
    "address": "501 A Avenue",
    "zip": "52349",
    "lat": 42.1659022,
    "lng": -92.0264098
  },
  {
    "name": "Fareway Stores - 177",
    "city": "Fort Madison",
    "state": "IA",
    "address": "1802 Avenue H",
    "zip": "52627",
    "lat": 40.6297157,
    "lng": -91.3314778
  },
  {
    "name": "Blair's Market - Lynn's Superfoods",
    "city": "Greybull",
    "state": "WY",
    "address": "909 North 6th Street",
    "zip": "82426",
    "lat": 44.4988669,
    "lng": -108.0546606
  },
  {
    "name": "Freed's - Freed's Super Market",
    "city": "Gilbertsville",
    "state": "PA",
    "address": "2024 Swamp Pike",
    "zip": "19525",
    "lat": 40.2937887,
    "lng": -75.5871521
  },
  {
    "name": "Nebo Market - Nebo Market",
    "city": "Nephi",
    "state": "UT",
    "address": "965 North Main Street",
    "zip": "84648",
    "lat": 39.7223663,
    "lng": -111.8373889
  },
  {
    "name": "Whitewater Market - Whitewater Market",
    "city": "Riggins",
    "state": "ID",
    "address": "131 South Main Street",
    "zip": "83549",
    "lat": 45.4213477,
    "lng": -116.3153772
  },
  {
    "name": "Bashas' - 156",
    "city": "Tucson",
    "state": "AZ",
    "address": "1221 West Irvington Road",
    "zip": "85714",
    "lat": 32.1615584,
    "lng": -110.9904244
  },
  {
    "name": "Fareway Stores - 055",
    "city": "Hiawatha",
    "state": "IA",
    "address": "885 Miller Road",
    "zip": "52233",
    "lat": 42.0465193,
    "lng": -91.7013581
  },
  {
    "name": "Bashas' - 139",
    "city": "Tucson",
    "state": "AZ",
    "address": "1740 West Ajo Way",
    "zip": "85713",
    "lat": 32.1795944,
    "lng": -111.0021703
  },
  {
    "name": "Bashas' - 136",
    "city": "Tucson",
    "state": "AZ",
    "address": "1225 West Saint Maryâ€™s Road",
    "zip": "85745",
    "lat": 32.2294552,
    "lng": -110.9915264
  },
  {
    "name": "Bashas' - 103",
    "city": "Phoenix",
    "state": "AZ",
    "address": "4239 West McDowell Road",
    "zip": "85009",
    "lat": 33.4649529,
    "lng": -112.1501938
  },
  {
    "name": "Bashas' - 102",
    "city": "Peoria",
    "state": "AZ",
    "address": "20351 North Lake Pleasant Road",
    "zip": "85382",
    "lat": 33.6676682,
    "lng": -112.2793817
  },
  {
    "name": "Johnny's A Street Market - Johnny's A Street Market",
    "city": "McAlester",
    "state": "OK",
    "address": "9 West Washington Avenue",
    "zip": "74501",
    "lat": 34.9348593,
    "lng": -95.7706797
  },
  {
    "name": "Fenn Foods - Fenn's Country Market",
    "city": "Artesia",
    "state": "NM",
    "address": "2001 West Main Street",
    "zip": "88210",
    "lat": 32.8411127,
    "lng": -104.4219332
  },
  {
    "name": "Velasquez Group L.P. - Sunray",
    "city": "Sunray",
    "state": "TX",
    "address": "714 Main Street",
    "zip": "79086",
    "lat": 36.016838,
    "lng": -101.8249867
  },
  {
    "name": "Velasquez Group L.P. - Stilwell",
    "city": "Stilwell",
    "state": "OK",
    "address": "419 North 2nd Street",
    "zip": "74960",
    "lat": 35.8187051,
    "lng": -94.6269413
  },
  {
    "name": "Yoke's Fresh Market - #4",
    "city": "Ponderay",
    "state": "ID",
    "address": "212 Bonner Mall Way",
    "zip": "83852",
    "lat": 48.3020163,
    "lng": -116.5455133
  },
  {
    "name": "ARO - Holladay",
    "city": "Salt Lake City",
    "state": "UT",
    "address": "4530 South Highland Drive",
    "zip": "84117",
    "lat": 40.6731249,
    "lng": -111.8424409
  },
  {
    "name": "Gerrity's Supermarket - Hanover",
    "city": "Wilkes-Barre",
    "state": "PA",
    "address": "2280 Sans Souci Parkway",
    "zip": "18706",
    "lat": 41.2086229,
    "lng": -75.9719715
  },
  {
    "name": "Carone's Market - Mountain Top",
    "city": "Mountain Top",
    "state": "PA",
    "address": "101 South Mountain Boulevard",
    "zip": "18707",
    "lat": 41.1560766,
    "lng": -75.8910747
  },
  {
    "name": "Bashas' - 089",
    "city": "El Mirage",
    "state": "AZ",
    "address": "12321 Grand Avenue",
    "zip": "85335",
    "lat": 33.6186346,
    "lng": -112.3260061
  },
  {
    "name": "Bashas' - 055",
    "city": "Wickenburg",
    "state": "AZ",
    "address": "275 North Tegner Street",
    "zip": "85390",
    "lat": 33.9712873,
    "lng": -112.7309477
  },
  {
    "name": "Tejeda's Market - Tejeda's Market",
    "city": "Salt Lake City",
    "state": "UT",
    "address": "1179 Navajo Street",
    "zip": "84104",
    "lat": 40.7428601,
    "lng": -111.9290538
  },
  {
    "name": "FireLake Foods - FireLake Discount Foods",
    "city": "Shawnee",
    "state": "OK",
    "address": "1570 South Gordon Cooper Drive",
    "zip": "74801",
    "lat": 35.3023603,
    "lng": -96.9277901
  },
  {
    "name": "Arlan's Market - #9-Santa Fe",
    "city": "Santa Fe",
    "state": "TX",
    "address": "12460 Hwy 6",
    "zip": "77510",
    "lat": 29.3747935,
    "lng": -95.0910248
  },
  {
    "name": "SpartanNash (Corporate Stores) - #116",
    "city": "Hudsonville",
    "state": "MI",
    "address": "5221 Cherry Ave",
    "zip": "49426",
    "lat": 42.8648246,
    "lng": -85.8701783
  },
  {
    "name": "ARO - Jeremy Ranch",
    "city": "Park City",
    "state": "UT",
    "address": "3151 Kilby Road",
    "zip": "84098",
    "lat": 40.7502205,
    "lng": -111.5704923
  },
  {
    "name": "El Rancho - #32",
    "city": "Houston",
    "state": "TX",
    "address": "5502 North Freeway",
    "zip": "77076",
    "lat": 29.8479577,
    "lng": -95.3914794
  },
  {
    "name": "Ream's Food Stores - #6",
    "city": "Taylorsville",
    "state": "UT",
    "address": "2600 West 4700 South",
    "zip": "84129",
    "lat": 40.6690074,
    "lng": -111.9561996
  },
  {
    "name": "Caledonia Marketplace - Caledonia Marketplace",
    "city": "Caledonia",
    "state": "NY",
    "address": "3136 Main St",
    "zip": "14423",
    "lat": 42.9717173,
    "lng": -77.8537904
  },
  {
    "name": "BiLo Foods - Martino's BiLo",
    "city": "Brockway",
    "state": "PA",
    "address": "1200 Main St",
    "zip": "15824",
    "lat": 41.2466181,
    "lng": -78.7893236
  },
  {
    "name": "Piggly Wiggly 102 and 103 - #102",
    "city": "Aliceville",
    "state": "AL",
    "address": "101 Memorial Parkway",
    "zip": "35442",
    "lat": 33.1278971,
    "lng": -88.1503985
  },
  {
    "name": "Khoury's Market Place - Carlin",
    "city": "Carlin",
    "state": "NV",
    "address": "730 10th Street",
    "zip": "89822",
    "lat": 40.7184825,
    "lng": -116.1069089
  },
  {
    "name": "FireLake Foods - McLoud",
    "city": "McLoud",
    "state": "OK",
    "address": "3467 South McLoud Road",
    "zip": "74851",
    "lat": 35.3920615,
    "lng": -97.0886885
  },
  {
    "name": "Gillis Enterprises LLC - #188",
    "city": "Ware Shoals",
    "state": "SC",
    "address": "800 N S Greenwood Ave",
    "zip": "29692",
    "lat": 34.3935042,
    "lng": -82.2389754
  },
  {
    "name": "ARO - Foothill",
    "city": "Salt Lake City",
    "state": "UT",
    "address": "1360 Foothill Drive",
    "zip": "84108",
    "lat": 40.7397642,
    "lng": -111.8271667
  },
  {
    "name": "Kent's Market - Tremonton",
    "city": "Tremonton",
    "state": "UT",
    "address": "300 East Main Street",
    "zip": "84337",
    "lat": 41.7109558,
    "lng": -112.1618879
  },
  {
    "name": "Ivie's Market - Ivie's Market",
    "city": "Mackay",
    "state": "ID",
    "address": "301 Main Street",
    "zip": "83251",
    "lat": 43.9136059,
    "lng": -113.613325
  },
  {
    "name": "Fenn Foods - Roswell - North",
    "city": "Roswell",
    "state": "NM",
    "address": "2800 North Main Street",
    "zip": "88201",
    "lat": 33.4280372,
    "lng": -104.5235176
  },
  {
    "name": "Food For Less PC - 290",
    "city": "Sneads",
    "state": "FL",
    "address": "8166 U.S. 90",
    "zip": "32460",
    "lat": 30.710239,
    "lng": -84.9125339
  },
  {
    "name": "Fareway Stores - 164",
    "city": "Sioux Falls",
    "state": "SD",
    "address": "3301 South Sycamore Avenue",
    "zip": "57103",
    "lat": 43.5142489,
    "lng": -96.6721753
  },
  {
    "name": "Stokes Market Place - Preston",
    "city": "Preston",
    "state": "ID",
    "address": "285 South State Street",
    "zip": "83263",
    "lat": 42.0905751,
    "lng": -111.8752335
  },
  {
    "name": "Super Foods - Glenrock",
    "city": "Glenrock",
    "state": "WY",
    "address": "218 West Cedar Street",
    "zip": "82637",
    "lat": 42.8607354,
    "lng": -105.8704356
  },
  {
    "name": "Jake's General Merchandise - Jake's General Merchandise",
    "city": "Reserve",
    "state": "NM",
    "address": "106 Main Street",
    "zip": "87830",
    "lat": 33.7131628,
    "lng": -108.757544
  },
  {
    "name": "Davis Food & Drug - #2",
    "city": "Roosevelt",
    "state": "UT",
    "address": "750 East 200 North",
    "zip": "84066",
    "lat": 40.3013808,
    "lng": -109.9806399
  },
  {
    "name": "Bashas' - 171",
    "city": "Tucson",
    "state": "AZ",
    "address": "2000 East Irvington Road",
    "zip": "85714",
    "lat": 32.1627882,
    "lng": -110.9419747
  },
  {
    "name": "Bashas' - 069",
    "city": "Tucson",
    "state": "AZ",
    "address": "3923 North Flowing Wells Road",
    "zip": "85705",
    "lat": 32.2781334,
    "lng": -110.9962231
  },
  {
    "name": "Bashas' - 135",
    "city": "Phoenix",
    "state": "AZ",
    "address": "5114 West McDowell Road",
    "zip": "85035",
    "lat": 33.4673782,
    "lng": -112.1701313
  },
  {
    "name": "Bashas' - 095",
    "city": "Phoenix",
    "state": "AZ",
    "address": "1940 West Indian School Road",
    "zip": "85015",
    "lat": 33.4971195,
    "lng": -112.1014938
  },
  {
    "name": "B&R Stores - #17",
    "city": "Lincoln",
    "state": "NE",
    "address": "2525 Pine Lake Road",
    "zip": "68512",
    "lat": 40.738331,
    "lng": -96.6850689
  },
  {
    "name": "Super Foods - Dubois",
    "city": "Dubois",
    "state": "WY",
    "address": "610 West Rams Horn Street",
    "zip": "82513",
    "lat": 43.5363302,
    "lng": -109.6405519
  },
  {
    "name": "Bashas' - 155",
    "city": "Mesa",
    "state": "AZ",
    "address": "9925 East Baseline Road",
    "zip": "85209",
    "lat": 33.3777782,
    "lng": -111.6210261
  },
  {
    "name": "Bashas' - 172",
    "city": "Gilbert",
    "state": "AZ",
    "address": "99 South Higley Road",
    "zip": "85296",
    "lat": 33.3485364,
    "lng": -111.7213261
  },
  {
    "name": "Bashas' - 108",
    "city": "Lake Havasu City",
    "state": "AZ",
    "address": "1799 Kiowa Avenue",
    "zip": "86403",
    "lat": 34.5051685,
    "lng": -114.3513208
  },
  {
    "name": "Bashas' - 054",
    "city": "Payson",
    "state": "AZ",
    "address": "142 Arizona 260",
    "zip": "85541",
    "lat": 34.2420974,
    "lng": -111.321073
  },
  {
    "name": "Chappel's Market - Chappel's Market",
    "city": "Hagerman",
    "state": "ID",
    "address": "180 South State Street",
    "zip": "83332",
    "lat": 42.8157936,
    "lng": -114.8993763
  },
  {
    "name": "Bashas' - 053",
    "city": "Taylor",
    "state": "AZ",
    "address": "650 Main Street",
    "zip": "85939",
    "lat": 34.4572292,
    "lng": -110.0912159
  },
  {
    "name": "Bashas' - 098",
    "city": "Winslow",
    "state": "AZ",
    "address": "NEC NAVAJO RTE 15 AND 60",
    "zip": "86047",
    "lat": 35.391461,
    "lng": -110.329442
  },
  {
    "name": "Bashas' - 036",
    "city": "Tuba City",
    "state": "AZ",
    "address": "US-160",
    "zip": "86045",
    "lat": 36.122837,
    "lng": -111.223918
  },
  {
    "name": "El Ahorro Supermarket - #10",
    "city": "Houston",
    "state": "TX",
    "address": "8615 Irvington Blvd",
    "zip": "77022",
    "lat": 29.8384759,
    "lng": -95.3619793
  },
  {
    "name": "El Ahorro Supermarket - #12",
    "city": "Irving",
    "state": "TX",
    "address": "201 S Rogers Rd",
    "zip": "75060",
    "lat": 32.8140286,
    "lng": -96.9644473
  },
  {
    "name": "SpartanNash (Corporate Stores) - #1579",
    "city": "Grandville",
    "state": "MI",
    "address": "3960 44th Street Southwest",
    "zip": "49418",
    "lat": 42.8844132,
    "lng": -85.7616587
  },
  {
    "name": "Fareway Stores - 949",
    "city": "Marion",
    "state": "IA",
    "address": "3300 10th Avenue",
    "zip": "52302",
    "lat": 42.0368517,
    "lng": -91.5764997
  },
  {
    "name": "Bashas' - 042",
    "city": "Kayenta",
    "state": "AZ",
    "address": "US-160",
    "zip": "86033",
    "lat": 36.709538,
    "lng": -110.250565
  },
  {
    "name": "Bashas' - 033",
    "city": "Chinle",
    "state": "AZ",
    "address": "Rte 7",
    "zip": "86503",
    "lat": 36.162764,
    "lng": -109.585925
  },
  {
    "name": "Bashas' - 034",
    "city": "Sanders",
    "state": "AZ",
    "address": "1022 U.S. 191",
    "zip": "86512",
    "lat": 35.2169269,
    "lng": -109.3345599
  },
  {
    "name": "Bashas' - 121",
    "city": "Eagar",
    "state": "AZ",
    "address": "150 North Main Street",
    "zip": "85925",
    "lat": 34.113694,
    "lng": -109.2930964
  },
  {
    "name": "CFSI/SCFI Corp - Stanton County Foods",
    "city": "Johnson City",
    "state": "KS",
    "address": "602 South Main Street",
    "zip": "67855",
    "lat": 37.5648486,
    "lng": -101.7515845
  },
  {
    "name": "CFSI/SCFI Corp - Syracuse Food Center",
    "city": "Syracuse",
    "state": "KS",
    "address": "301 U.S. 50",
    "zip": "67878",
    "lat": 37.9795038,
    "lng": -101.7498758
  },
  {
    "name": "Meade Thriftway - Meade Thriftway",
    "city": "Meade",
    "state": "KS",
    "address": "922 West Carthage Street",
    "zip": "67864",
    "lat": 37.2864242,
    "lng": -100.3521579
  },
  {
    "name": "El Ahorro Supermarket - Food City #1",
    "city": "Houston",
    "state": "TX",
    "address": "5230 Aldine Mail Rte Rd",
    "zip": "77039",
    "lat": 29.9018872,
    "lng": -95.3135401
  },
  {
    "name": "Piggly Wiggly 41 - #41",
    "city": "Greensboro",
    "state": "AL",
    "address": "115 Main Street",
    "zip": "36744",
    "lat": 32.7041263,
    "lng": -87.5926996
  },
  {
    "name": "SpartanNash (Corporate Stores) - #239",
    "city": "Hudsonville",
    "state": "MI",
    "address": "6480 28th Avenue",
    "zip": "49426",
    "lat": 42.8865153,
    "lng": -85.8512936
  },
  {
    "name": "Bashas' - 040",
    "city": "Thatcher",
    "state": "AZ",
    "address": "2323 U.S. 70",
    "zip": "85552",
    "lat": 32.838937,
    "lng": -109.7399143
  },
  {
    "name": "Bashas' - 112",
    "city": "Douglas",
    "state": "AZ",
    "address": "1300 San Antonio Avenue",
    "zip": "85607",
    "lat": 31.3470536,
    "lng": -109.5340296
  },
  {
    "name": "FireLake Foods - Tecumseh",
    "city": "Tecumseh",
    "state": "OK",
    "address": "214 East Walnut Street",
    "zip": "74873",
    "lat": 35.260427,
    "lng": -96.9347094
  },
  {
    "name": "Yoke's Fresh Market - #18",
    "city": "Spokane Valley",
    "state": "WA",
    "address": "13014 East Sprague Avenue",
    "zip": "99216",
    "lat": 47.6560004,
    "lng": -117.2300993
  },
  {
    "name": "Yoke's Fresh Market - #3",
    "city": "Spokane",
    "state": "WA",
    "address": "210 North Foothills Drive East",
    "zip": "99207",
    "lat": 47.6814329,
    "lng": -117.4058161
  },
  {
    "name": "Yoke's Fresh Market - #7",
    "city": "Deer Park",
    "state": "WA",
    "address": "810 South Main Street",
    "zip": "99006",
    "lat": 47.9465882,
    "lng": -117.4781821
  },
  {
    "name": "Fareway Stores - 501",
    "city": "Charles City",
    "state": "IA",
    "address": "210 11th Street",
    "zip": "50616",
    "lat": 43.0524305,
    "lng": -92.675016
  },
  {
    "name": "Bashas' - 008",
    "city": "San Carlos",
    "state": "AZ",
    "address": "US-70",
    "zip": "85550",
    "lat": 33.299643,
    "lng": -110.459713
  },
  {
    "name": "John Brooks Supermarket - Milan",
    "city": "Grants",
    "state": "NM",
    "address": "1415 Route 66",
    "zip": "87020",
    "lat": 35.1813447,
    "lng": -107.8968017
  },
  {
    "name": "Fareway Stores - 048",
    "city": "Clarinda",
    "state": "IA",
    "address": "115 Essie Davison Drive",
    "zip": "51632",
    "lat": 40.7241126,
    "lng": -95.0389723
  },
  {
    "name": "John Brooks Supermarket - El Dorado Supermarket",
    "city": "Santa Fe",
    "state": "NM",
    "address": "7 Avenue Vista Grande",
    "zip": "87508",
    "lat": 35.5389338,
    "lng": -105.8913282
  },
  {
    "name": "Byers General Store - Byers General Store",
    "city": "Byers",
    "state": "CO",
    "address": "568 U.S. 36",
    "zip": "80103",
    "lat": 39.7181729,
    "lng": -104.2188388
  },
  {
    "name": "Swensen's Markets - #3",
    "city": "Paul",
    "state": "ID",
    "address": "113 East Ellis Street",
    "zip": "83347",
    "lat": 42.6043894,
    "lng": -113.781002
  },
  {
    "name": "Swensen's Markets - #6",
    "city": "Twin Falls",
    "state": "ID",
    "address": "991 Washington Street South",
    "zip": "83301",
    "lat": 42.5331417,
    "lng": -114.478976
  },
  {
    "name": "Bashas' - 154",
    "city": "Phoenix",
    "state": "AZ",
    "address": "9020 West Thomas Road",
    "zip": "85037",
    "lat": 33.4809034,
    "lng": -112.2537754
  },
  {
    "name": "Bashas' - 083",
    "city": "Avondale",
    "state": "AZ",
    "address": "323 East Main Street",
    "zip": "85323",
    "lat": 33.4309864,
    "lng": -112.3455587
  },
  {
    "name": "Yoke's Fresh Market - #15",
    "city": "Richland",
    "state": "WA",
    "address": "454 Keene Road",
    "zip": "99352",
    "lat": 46.2376618,
    "lng": -119.2813574
  },
  {
    "name": "Piggly Wiggly - Danny Manning - #471",
    "city": "Spanish Fort",
    "state": "AL",
    "address": "6530 Spanish Fort Boulevard",
    "zip": "36527",
    "lat": 30.6674083,
    "lng": -87.9099704
  },
  {
    "name": "Fareway Stores - 412",
    "city": "Oelwein",
    "state": "IA",
    "address": "102 2nd Street Southeast",
    "zip": "50662",
    "lat": 42.6748083,
    "lng": -91.9111168
  },
  {
    "name": "Thriftway Foods - Thriftway Foods",
    "city": "Memphis",
    "state": "TX",
    "address": "123 South 15th Street",
    "zip": "79245",
    "lat": 34.7245412,
    "lng": -100.5493839
  },
  {
    "name": "Johnny's Hometown Foods - Johnny's Hometown Foods",
    "city": "Claude",
    "state": "TX",
    "address": "202 Goodnight Street",
    "zip": "79019",
    "lat": 35.108552,
    "lng": -101.3584701
  },
  {
    "name": "Alex Bay Big M Market - Alex Bay Big M Market",
    "city": "Alexandria Bay",
    "state": "NY",
    "address": "45560 NY-12",
    "zip": "13607",
    "lat": 44.3272746,
    "lng": -75.9187593
  },
  {
    "name": "Dolgeville's Big M Hometown Market - Dolgeville's Big M Hometown Market",
    "city": "Dolgeville",
    "state": "NY",
    "address": "15 Lamberson St",
    "zip": "13329",
    "lat": 43.0988288,
    "lng": -74.7717654
  },
  {
    "name": "Rouses Markets - #73",
    "city": "Mobile",
    "state": "AL",
    "address": "7765 Airport Boulevard",
    "zip": "36608",
    "lat": 30.6830726,
    "lng": -88.2237138
  },
  {
    "name": "Fareway Stores - 061",
    "city": "Ankeny",
    "state": "IA",
    "address": "3205 North Ankeny Boulevard",
    "zip": "50021",
    "lat": 41.757053,
    "lng": -93.5992261
  },
  {
    "name": "S&S Supermarket - S&S Supermarket",
    "city": "Clovis",
    "state": "NM",
    "address": "2204 North Main Street",
    "zip": "88101",
    "lat": 34.4200651,
    "lng": -103.2062104
  },
  {
    "name": "Taylor's Venture Market - Taylor's Venture Market",
    "city": "Vega",
    "state": "TX",
    "address": "107 North 9th Street",
    "zip": "79092",
    "lat": 35.246834,
    "lng": -102.4268802
  },
  {
    "name": "Dicus Supermarket - Dicus Supermarket",
    "city": "Ada",
    "state": "OK",
    "address": "220 East 13th Street",
    "zip": "74820",
    "lat": 34.7729197,
    "lng": -96.6757573
  },
  {
    "name": "Fareway Stores - 987",
    "city": "Davenport",
    "state": "IA",
    "address": "1635 West 53rd Street",
    "zip": "52806",
    "lat": 41.5738124,
    "lng": -90.5985864
  },
  {
    "name": "Gerrity's Supermarket - Wyoming",
    "city": "Wyoming",
    "state": "PA",
    "address": "2020 Wyoming Avenue",
    "zip": "18644",
    "lat": 41.3002951,
    "lng": -75.8594776
  },
  {
    "name": "Porter's - Alpine 2",
    "city": "Alpine",
    "state": "TX",
    "address": "104 North 2nd Street",
    "zip": "79830",
    "lat": 30.3589873,
    "lng": -103.657889
  },
  {
    "name": "El Rancho - #33",
    "city": "Grand Prairie",
    "state": "TX",
    "address": "2506 South Belt Line Road",
    "zip": "75052",
    "lat": 32.7081716,
    "lng": -96.9928613
  },
  {
    "name": "SpartanNash (Corporate Stores) - #1591",
    "city": "Grand Rapids",
    "state": "MI",
    "address": "2022 Apple Orchard Lane",
    "zip": "49525",
    "lat": 43.0003734,
    "lng": -85.5883613
  },
  {
    "name": "Fareway Stores - 639",
    "city": "Maquoketa",
    "state": "IA",
    "address": "110 Westgate Drive",
    "zip": "52060",
    "lat": 42.0671939,
    "lng": -90.6813721
  },
  {
    "name": "El Rancho - #36",
    "city": "Houston",
    "state": "TX",
    "address": "11303 Veterans Memorial Drive",
    "zip": "77067",
    "lat": 29.9461306,
    "lng": -95.4682394
  },
  {
    "name": "Fareway Stores - 386",
    "city": "Ames",
    "state": "IA",
    "address": "619 Burnett Avenue",
    "zip": "50010",
    "lat": 42.0276359,
    "lng": -93.6164771
  },
  {
    "name": "Gerrity's Supermarket - Pittston",
    "city": "West Pittston",
    "state": "PA",
    "address": "801 Wyoming Avenue",
    "zip": "18643",
    "lat": 41.3246416,
    "lng": -75.808098
  },
  {
    "name": "Bashas' - 071",
    "city": "Tucson",
    "state": "AZ",
    "address": "6900 East Sunrise Drive",
    "zip": "85750",
    "lat": 32.3088018,
    "lng": -110.8454929
  },
  {
    "name": "Food Basket - Food Basket",
    "city": "Silver City",
    "state": "NM",
    "address": "1220 North Hudson Street",
    "zip": "88061",
    "lat": 32.7779641,
    "lng": -108.2730629
  },
  {
    "name": "Clyde Ideal Market - Clyde Ideal Market",
    "city": "Clyde",
    "state": "KS",
    "address": "331 Washington Street",
    "zip": "66938",
    "lat": 39.5915021,
    "lng": -97.3983024
  },
  {
    "name": "Cimarron Shurfine Foods - Cimarron Shurfine Foods",
    "city": "Cimarron",
    "state": "KS",
    "address": "18309 U.S. 50",
    "zip": "67835",
    "lat": 37.805831,
    "lng": -100.3349666
  },
  {
    "name": "Durens Piggly Wiggly - #72",
    "city": "Port St Joe",
    "state": "FL",
    "address": "125 West Highway 98",
    "zip": "32456",
    "lat": 29.8164219,
    "lng": -85.3071988
  },
  {
    "name": "Logan's Venture Foods - Shattuck Venture Foods",
    "city": "Shattuck",
    "state": "OK",
    "address": "1600 Main Street",
    "zip": "73858",
    "lat": 36.2610939,
    "lng": -99.8814605
  },
  {
    "name": "Chappell Super Foods - Chappell Super Foods",
    "city": "Chappell",
    "state": "NE",
    "address": "734 2nd Street",
    "zip": "69129",
    "lat": 41.0928298,
    "lng": -102.4718714
  },
  {
    "name": "Yoke's Fresh Market - #14",
    "city": "West Richland",
    "state": "WA",
    "address": "1401 Bombing Range Road",
    "zip": "99353",
    "lat": 46.2873648,
    "lng": -119.352132
  },
  {
    "name": "Food City - Bridgton",
    "city": "Bridgton",
    "state": "ME",
    "address": "295 Main St",
    "zip": "04009",
    "lat": 44.0537212,
    "lng": -70.7002076
  },
  {
    "name": "Yoke's Fresh Market - #11",
    "city": "Spokane Valley",
    "state": "WA",
    "address": "9329 East Montgomery Avenue",
    "zip": "99206",
    "lat": 47.6801112,
    "lng": -117.2796143
  },
  {
    "name": "Bashas' - 026",
    "city": "Chandler",
    "state": "AZ",
    "address": "1005 North Arizona Avenue",
    "zip": "85224",
    "lat": 33.3214875,
    "lng": -111.8395221
  },
  {
    "name": "Bashas' - 025",
    "city": "Mesa",
    "state": "AZ",
    "address": "450 East Southern Avenue",
    "zip": "85204",
    "lat": 33.3933421,
    "lng": -111.8218084
  },
  {
    "name": "Piggly Wiggly 112 and 115 - #115",
    "city": "Odenville",
    "state": "AL",
    "address": "100 Council Street",
    "zip": "35120",
    "lat": 33.6761137,
    "lng": -86.4047577
  },
  {
    "name": "Ashburn Piggly Wiggly - #136",
    "city": "Ashburn",
    "state": "GA",
    "address": "215 East Monroe Avenue",
    "zip": "31714",
    "lat": 31.705534,
    "lng": -83.651641
  },
  {
    "name": "Piggly Wiggly 126 - #126",
    "city": "Union Springs",
    "state": "AL",
    "address": "205 West Conecuh Avenue",
    "zip": "36089",
    "lat": 32.1468611,
    "lng": -85.7121028
  },
  {
    "name": "El Rancho - #39",
    "city": "Houston",
    "state": "TX",
    "address": "3050 North Fry Road",
    "zip": "77084",
    "lat": 29.8132624,
    "lng": -95.719368
  },
  {
    "name": "Bashas' - 157",
    "city": "Tempe",
    "state": "AZ",
    "address": "725 West Baseline Road",
    "zip": "85283",
    "lat": 33.3771912,
    "lng": -111.9509793
  },
  {
    "name": "Velasquez Group L.P. - Eufaula",
    "city": "Eufaula",
    "state": "OK",
    "address": "402 South Main Street",
    "zip": "74432",
    "lat": 35.2830529,
    "lng": -95.5831848
  },
  {
    "name": "Piggly Wiggly 999 - #999",
    "city": "Millport",
    "state": "AL",
    "address": "12205 Alabama 96",
    "zip": "35576",
    "lat": 33.560468,
    "lng": -88.0730727
  },
  {
    "name": "Bashas' - 128",
    "city": "Sun City West",
    "state": "AZ",
    "address": "13940 West Meeker Boulevard",
    "zip": "85375",
    "lat": 33.6606573,
    "lng": -112.3605493
  },
  {
    "name": "Beggs General Store - Beggs General Store",
    "city": "Beggs",
    "state": "OK",
    "address": "103 North Broadway",
    "zip": "74421",
    "lat": 35.7409011,
    "lng": -96.070341
  },
  {
    "name": "Piggly Wiggly - Tuscaloosa - #254",
    "city": "Tuscaloosa",
    "state": "AL",
    "address": "2731 University Boulevard East",
    "zip": "35404",
    "lat": 33.20548,
    "lng": -87.5023243
  },
  {
    "name": "Blair's Market - Worland",
    "city": "Worland",
    "state": "WY",
    "address": "1801 Big Horn Avenue",
    "zip": "82401",
    "lat": 44.0176559,
    "lng": -107.9445546
  },
  {
    "name": "B&R Stores - #26",
    "city": "Kearney",
    "state": "NE",
    "address": "7 West 25th Street",
    "zip": "68847",
    "lat": 40.7011423,
    "lng": -99.0817027
  },
  {
    "name": "Porter's - Presidio",
    "city": "Presidio",
    "state": "TX",
    "address": "504 Erma Avenue",
    "zip": "79845",
    "lat": 29.560891,
    "lng": -104.3692123
  },
  {
    "name": "Hines General Store - Hines General Store",
    "city": "Lander",
    "state": "WY",
    "address": "14597 U.S. 287",
    "zip": "82520",
    "lat": 42.9901645,
    "lng": -108.8726947
  },
  {
    "name": "El Rancho - #29",
    "city": "Fort Worth",
    "state": "TX",
    "address": "3220 North Main Street",
    "zip": "76106",
    "lat": 32.8042201,
    "lng": -97.3499599
  },
  {
    "name": "Super One Foods - 576",
    "city": "Duluth",
    "state": "MN",
    "address": "5401 Burning Tree Road",
    "zip": "55811",
    "lat": 46.8103547,
    "lng": -92.1710384
  },
  {
    "name": "Piggly Wiggly 180 - #180",
    "city": "Wrightsville",
    "state": "GA",
    "address": "384 West Trilby Street",
    "zip": "31096",
    "lat": 32.7321843,
    "lng": -82.7226474
  },
  {
    "name": "Fareway Stores - 118",
    "city": "Nebraska City",
    "state": "NE",
    "address": "1738 South 11th Street",
    "zip": "68410",
    "lat": 40.6608344,
    "lng": -95.8610062
  },
  {
    "name": "Bashas' - 067",
    "city": "Flagstaff",
    "state": "AZ",
    "address": "1000 North Humphreys Street",
    "zip": "86002",
    "lat": 35.2078667,
    "lng": -111.6469751
  },
  {
    "name": "Food City Supermarkets - Estrella",
    "city": "El Paso",
    "state": "TX",
    "address": "3200 Alameda Avenue",
    "zip": "79905",
    "lat": 31.7730953,
    "lng": -106.4567375
  },
  {
    "name": "Fenn Foods - La Tienda Thriftway",
    "city": "Carlsbad",
    "state": "NM",
    "address": "1301 South Canal Street",
    "zip": "88220",
    "lat": 32.4067782,
    "lng": -104.227337
  },
  {
    "name": "Cub Foods - Stillwater",
    "city": "Stillwater",
    "state": "MN",
    "address": "1801 Market Drive",
    "zip": "55082",
    "lat": 45.0378953,
    "lng": -92.8382857
  },
  {
    "name": "Piggly Wiggly 129 - #129",
    "city": "Union",
    "state": "MS",
    "address": "206 East Jackson Road",
    "zip": "39365",
    "lat": 32.5723522,
    "lng": -89.1213077
  },
  {
    "name": "Piggly Wiggly 190 - #190",
    "city": "Eclectic",
    "state": "AL",
    "address": "515 Kowaliga Road",
    "zip": "36024",
    "lat": 32.6415571,
    "lng": -86.0400899
  },
  {
    "name": "ARO - Bountiful",
    "city": "Bountiful",
    "state": "UT",
    "address": "2280 Orchard Drive",
    "zip": "84010",
    "lat": 40.8652598,
    "lng": -111.8812653
  },
  {
    "name": "Fareway Stores - 963",
    "city": "Cedar Rapids",
    "state": "IA",
    "address": "4220 16th Avenue Southwest",
    "zip": "52404",
    "lat": 41.9648892,
    "lng": -91.7271939
  },
  {
    "name": "Yoke's Fresh Market - #12",
    "city": "Pasco",
    "state": "WA",
    "address": "4905 Road 68",
    "zip": "99301",
    "lat": 46.2718714,
    "lng": -119.1823255
  },
  {
    "name": "Piggly Wiggly - Danny Manning - #465",
    "city": "Mobile",
    "state": "AL",
    "address": "2655 Dauphin Island Parkway",
    "zip": "36605",
    "lat": 30.6196997,
    "lng": -88.0746969
  },
  {
    "name": "Piggly Wiggly - Danny Manning - #466",
    "city": "Mobile",
    "state": "AL",
    "address": "4720 Moffett Road",
    "zip": "36618",
    "lat": 30.7213861,
    "lng": -88.1498046
  },
  {
    "name": "Ream's Food Stores - #2",
    "city": "South Salt Lake",
    "state": "UT",
    "address": "2783 State Street",
    "zip": "84115",
    "lat": 40.7104886,
    "lng": -111.8871133
  },
  {
    "name": "Bashas' - 037",
    "city": "Cottonwood",
    "state": "AZ",
    "address": "1501 Arizona 89A",
    "zip": "86326",
    "lat": 34.7273057,
    "lng": -112.0104029
  },
  {
    "name": "Hometown Food Stores - Hometown Food Stores",
    "city": "Buhler",
    "state": "KS",
    "address": "116 North Main Street",
    "zip": "67522",
    "lat": 38.1354901,
    "lng": -97.7701731
  },
  {
    "name": "Gene's Heartland Foods - Ellsworth",
    "city": "Ellsworth",
    "state": "KS",
    "address": "745 Odonnell Drive",
    "zip": "67439",
    "lat": 38.7430355,
    "lng": -98.2164278
  },
  {
    "name": "Satanta Grocery - Satanta Grocery",
    "city": "Satanta",
    "state": "KS",
    "address": "109 Comanche Street",
    "zip": "67870",
    "lat": 37.4392183,
    "lng": -100.9863746
  },
  {
    "name": "ARO - East Ogden",
    "city": "Ogden",
    "state": "UT",
    "address": "2044 South Harrison Boulevard",
    "zip": "84401",
    "lat": 41.229803,
    "lng": -111.946828
  },
  {
    "name": "Bashas' - 110",
    "city": "Mesa",
    "state": "AZ",
    "address": "1133 North Ellsworth Road",
    "zip": "85207",
    "lat": 33.435944,
    "lng": -111.6325586
  },
  {
    "name": "Yoke's Fresh Market - #19",
    "city": "Spokane",
    "state": "WA",
    "address": "4235 Cheney Spokane Road",
    "zip": "99224",
    "lat": 47.6151679,
    "lng": -117.4289083
  },
  {
    "name": "Arlan's Market - #27-Oak Ridge North",
    "city": "Oak Ridge North",
    "state": "TX",
    "address": "26824 Interstate Hwy 45",
    "zip": "77386",
    "lat": 30.1532079,
    "lng": -95.4470691
  },
  {
    "name": "Macks Market - Mack's Market",
    "city": "Thermopolis",
    "state": "WY",
    "address": "600 South 6th Street",
    "zip": "82443",
    "lat": 43.6402572,
    "lng": -108.2132208
  },
  {
    "name": "Honey's Marketplace - Honey's Marketplace",
    "city": "Kanab",
    "state": "UT",
    "address": "260 East 300 South",
    "zip": "84741",
    "lat": 37.042327,
    "lng": -112.5225537
  },
  {
    "name": "SpartanNash (Corporate Stores) - #1570",
    "city": "Grand Haven",
    "state": "MI",
    "address": "1116 Robbins Road",
    "zip": "49417",
    "lat": 43.0441809,
    "lng": -86.2150979
  },
  {
    "name": "Bashas' - 109",
    "city": "Maricopa",
    "state": "AZ",
    "address": "21044 North John Wayne Parkway",
    "zip": "85139",
    "lat": 33.0711752,
    "lng": -112.0468837
  },
  {
    "name": "Sidney Great American - Sidney Great American",
    "city": "Sidney",
    "state": "NY",
    "address": "5 Doran Ln",
    "zip": "13838",
    "lat": 42.3121433,
    "lng": -75.3912146
  },
  {
    "name": "Khoury's Market Place - Spring Creek",
    "city": "Spring Creek",
    "state": "NV",
    "address": "568 Spring Valley Court",
    "zip": "89815",
    "lat": 40.7866382,
    "lng": -115.6779048
  },
  {
    "name": "Bashas' - 116",
    "city": "Lake Havasu City",
    "state": "AZ",
    "address": "3269 Maricopa Avenue",
    "zip": "86406",
    "lat": 34.4591795,
    "lng": -114.2788913
  },
  {
    "name": "El Rancho - #16",
    "city": "Dallas",
    "state": "TX",
    "address": "4450 West Jefferson Boulevard",
    "zip": "75211",
    "lat": 32.7355,
    "lng": -96.892843
  },
  {
    "name": "Piggly Wiggly 6, 15, 16, and 20 - #15",
    "city": "Eupora",
    "state": "MS",
    "address": "3135 East Roane Avenue",
    "zip": "39744",
    "lat": 33.5406187,
    "lng": -89.261638
  },
  {
    "name": "ARO - Spanish Fork",
    "city": "Spanish Fork",
    "state": "UT",
    "address": "187 East 1000 North",
    "zip": "84660",
    "lat": 40.1241219,
    "lng": -111.6513535
  },
  {
    "name": "Fareway Stores - 974",
    "city": "Cedar Falls",
    "state": "IA",
    "address": "214 Magnolia Drive",
    "zip": "50613",
    "lat": 42.5389338,
    "lng": -92.4757931
  },
  {
    "name": "Bashas' - 107",
    "city": "Phoenix",
    "state": "AZ",
    "address": "7227 South Central Avenue",
    "zip": "85042",
    "lat": 33.3805916,
    "lng": -112.0732568
  },
  {
    "name": "Arlan's Market - #22-Navasota",
    "city": "Navasota",
    "state": "TX",
    "address": "1401 E Washington Ave",
    "zip": "77868",
    "lat": 30.3949636,
    "lng": -96.0785517
  },
  {
    "name": "ARO - North Orem",
    "city": "Orem",
    "state": "UT",
    "address": "880 State Street",
    "zip": "84057",
    "lat": 40.3133907,
    "lng": -111.7005351
  },
  {
    "name": "Bashas' - 078",
    "city": "Whiteriver",
    "state": "AZ",
    "address": "Hwy 73 & W Main St",
    "zip": "85941",
    "lat": 33.824215,
    "lng": -109.979082
  },
  {
    "name": "Bashas' - 092",
    "city": "Morenci",
    "state": "AZ",
    "address": "172 Burro Alley",
    "zip": "85540",
    "lat": 33.050545,
    "lng": -109.3275405
  },
  {
    "name": "El Ahorro Supermarket - Food City #3",
    "city": "San Antonio",
    "state": "TX",
    "address": "2020 Austin Hwy",
    "zip": "78218",
    "lat": 29.5022541,
    "lng": -98.416966
  },
  {
    "name": "Piggly Wiggly 130 and 134 - #134",
    "city": "Troy",
    "state": "AL",
    "address": "1235 U.S. 231",
    "zip": "36079",
    "lat": 31.7794298,
    "lng": -85.9491363
  },
  {
    "name": "RBG Foods - #67",
    "city": "Franklin",
    "state": "GA",
    "address": "241 East Court Square",
    "zip": "30217",
    "lat": 33.278632,
    "lng": -85.0983302
  },
  {
    "name": "Fareway Stores - 043",
    "city": "Omaha",
    "state": "NE",
    "address": "17070 Audrey Street",
    "zip": "68136",
    "lat": 41.1902233,
    "lng": -96.1814381
  },
  {
    "name": "Bashas' - 066",
    "city": "Carefree",
    "state": "AZ",
    "address": "36889 North Tom Darlington Drive",
    "zip": "85377",
    "lat": 33.8248262,
    "lng": -111.9246185
  },
  {
    "name": "Bashas' - 124",
    "city": "Yuma",
    "state": "AZ",
    "address": "2600 West 16th Street",
    "zip": "85364",
    "lat": 32.6998788,
    "lng": -114.6518673
  },
  {
    "name": "Reynolds Market - Miles City",
    "city": "Miles City",
    "state": "MT",
    "address": "2106 Valley Drive East",
    "zip": "59301",
    "lat": 46.4132714,
    "lng": -105.8337065
  },
  {
    "name": "Bashas' - 127",
    "city": "San Luis",
    "state": "AZ",
    "address": "579 Main Street",
    "zip": "85349",
    "lat": 32.4883715,
    "lng": -114.7816782
  },
  {
    "name": "Bashas' - 114",
    "city": "Yuma",
    "state": "AZ",
    "address": "1240 West 8th Street",
    "zip": "85364",
    "lat": 32.7139274,
    "lng": -114.6350634
  },
  {
    "name": "Buy for Less - #7957",
    "city": "Bethany",
    "state": "OK",
    "address": "7957 Northwest 23rd Street",
    "zip": "73008",
    "lat": 35.4946963,
    "lng": -97.6535472
  },
  {
    "name": "Bashas' - 161",
    "city": "Chandler",
    "state": "AZ",
    "address": "4940 South Gilbert Road",
    "zip": "85249",
    "lat": 33.2350542,
    "lng": -111.7917027
  },
  {
    "name": "Velasquez Group L.P. - Wheeler",
    "city": "Wheeler",
    "state": "TX",
    "address": "300 East Oklahoma Avenue",
    "zip": "79096",
    "lat": 35.4444397,
    "lng": -100.2699151
  },
  {
    "name": "Paul's Big M - Paul's Big M",
    "city": "Oswego",
    "state": "NY",
    "address": "276 W 1st St",
    "zip": "13126",
    "lat": 43.4528788,
    "lng": -76.5097687
  },
  {
    "name": "Harborcreek Shurfine - Harborcreek Shurfine",
    "city": "Harborcreek",
    "state": "PA",
    "address": "6992 Buffalo Rd",
    "zip": "16421",
    "lat": 42.1716266,
    "lng": -79.9481681
  },
  {
    "name": "El Rancho - #14",
    "city": "Dallas",
    "state": "TX",
    "address": "14211 Coit Road",
    "zip": "75254",
    "lat": 32.9375296,
    "lng": -96.7688397
  },
  {
    "name": "Buy for Less - #4424",
    "city": "Oklahoma City",
    "state": "OK",
    "address": "1104 Southeast 44th Street",
    "zip": "73129",
    "lat": 35.4186314,
    "lng": -97.4932893
  },
  {
    "name": "Buy for Less - #1006",
    "city": "Midwest City",
    "state": "OK",
    "address": "10011 Southeast 15th Street",
    "zip": "73130",
    "lat": 35.4501378,
    "lng": -97.3521442
  },
  {
    "name": "Fareway Stores - 093",
    "city": "Ames",
    "state": "IA",
    "address": "3619 Stange Road",
    "zip": "50010",
    "lat": 42.0573014,
    "lng": -93.6451216
  },
  {
    "name": "Modern Market - Modern Market",
    "city": "Moravia",
    "state": "NY",
    "address": "1 E Cayuga St",
    "zip": "13118",
    "lat": 42.713859,
    "lng": -76.4211467
  },
  {
    "name": "Cassadaga Shurfine - Cassadaga Shurfine",
    "city": "Cassadaga",
    "state": "NY",
    "address": "8038 NY-60",
    "zip": "14718",
    "lat": 42.351407,
    "lng": -79.310989
  },
  {
    "name": "Piggly Wiggly 5, 18, 29 - #5",
    "city": "Nettleton",
    "state": "MS",
    "address": "7195 Will Robbins Highway",
    "zip": "38858",
    "lat": 34.0865477,
    "lng": -88.6240262
  },
  {
    "name": "Ridley's Family Markets - Buhl",
    "city": "Buhl",
    "state": "ID",
    "address": "705 U.S. 30",
    "zip": "83316",
    "lat": 42.592642,
    "lng": -114.749722
  },
  {
    "name": "Fareway Stores - 950",
    "city": "Iowa City",
    "state": "IA",
    "address": "2530 Westwinds Drive",
    "zip": "52246",
    "lat": 41.6514361,
    "lng": -91.5761967
  },
  {
    "name": "Piggly Wiggly 6, 15, 16, and 20 - #20",
    "city": "Columbus",
    "state": "MS",
    "address": "3610 New Hope Road",
    "zip": "39702",
    "lat": 33.4486628,
    "lng": -88.3263391
  },
  {
    "name": "ARO - East Layton",
    "city": "Layton",
    "state": "UT",
    "address": "910 North Fairfield Road",
    "zip": "84041",
    "lat": 41.0731766,
    "lng": -111.9490006
  },
  {
    "name": "Davis Food & Drug - #4",
    "city": "La Verkin",
    "state": "UT",
    "address": "495 North State Street",
    "zip": "84745",
    "lat": 37.2103805,
    "lng": -113.2733208
  },
  {
    "name": "San Eli Supermarkets - Fabens Branch",
    "city": "Fabens",
    "state": "TX",
    "address": "1330 Fabens Road",
    "zip": "79838",
    "lat": 31.5093786,
    "lng": -106.14771
  },
  {
    "name": "L&R Sherman, LLC - #192",
    "city": "Ridgeland",
    "state": "SC",
    "address": "10847 N Jacob Smart Blvd",
    "zip": "29936",
    "lat": 32.4815705,
    "lng": -80.9804592
  },
  {
    "name": "El Rancho - #19",
    "city": "Dallas",
    "state": "TX",
    "address": "2550 Gus Thomasson Road",
    "zip": "75228",
    "lat": 32.8337221,
    "lng": -96.6724192
  },
  {
    "name": "El Rancho - #23",
    "city": "Fort Worth",
    "state": "TX",
    "address": "1220 North Beach Street",
    "zip": "76111",
    "lat": 32.7802867,
    "lng": -97.2899352
  },
  {
    "name": "Fareway Stores - 925",
    "city": "Altoona",
    "state": "IA",
    "address": "620 8th Street Southeast",
    "zip": "50009",
    "lat": 41.6433613,
    "lng": -93.458118
  },
  {
    "name": "Fareway Stores - 409",
    "city": "Carroll",
    "state": "IA",
    "address": "709 Monterey Drive",
    "zip": "51401",
    "lat": 42.0655406,
    "lng": -94.8514964
  },
  {
    "name": "Fareway Stores - 021",
    "city": "Sheldon",
    "state": "IA",
    "address": "2603 Park Street",
    "zip": "51201",
    "lat": 43.186877,
    "lng": -95.8205836
  },
  {
    "name": "Quality Market - Delta",
    "city": "Delta",
    "state": "UT",
    "address": "180 East Main Street",
    "zip": "84624",
    "lat": 39.3517295,
    "lng": -112.5709632
  },
  {
    "name": "Piggly Wiggly 72 - #72",
    "city": "Wagener",
    "state": "SC",
    "address": "123 Earl St S",
    "zip": "29164",
    "lat": 33.6496956,
    "lng": -81.3609951
  },
  {
    "name": "Piggly Wiggly 62 - #62",
    "city": "Nahunta",
    "state": "GA",
    "address": "10186 N Main St",
    "zip": "31553",
    "lat": 31.2078728,
    "lng": -81.9796452
  },
  {
    "name": "Bashas' - 162",
    "city": "Phoenix",
    "state": "AZ",
    "address": "845 West Southern Avenue",
    "zip": "85041",
    "lat": 33.3922194,
    "lng": -112.0839562
  },
  {
    "name": "Piggly Wiggly 114 - #114",
    "city": "Cedar Bluff",
    "state": "AL",
    "address": "3800 Alabama 9",
    "zip": "35959",
    "lat": 34.218336,
    "lng": -85.6020426
  },
  {
    "name": "Fareway Stores - 551",
    "city": "Eagle Grove",
    "state": "IA",
    "address": "205 Northwest 1st Street",
    "zip": "50533",
    "lat": 42.6656465,
    "lng": -93.9034829
  },
  {
    "name": "Bashas' - 158",
    "city": "Phoenix",
    "state": "AZ",
    "address": "5555 North 7th Street",
    "zip": "85014",
    "lat": 33.5179651,
    "lng": -112.0633794
  },
  {
    "name": "Gunnison Market - Gunnison Market",
    "city": "Gunnison",
    "state": "UT",
    "address": "520 South Main Street",
    "zip": "84634",
    "lat": 39.1450701,
    "lng": -111.8200618
  },
  {
    "name": "Buy for Less - #1201",
    "city": "Yukon",
    "state": "OK",
    "address": "1201 Cornwell Drive",
    "zip": "73099",
    "lat": 35.4942781,
    "lng": -97.7407698
  },
  {
    "name": "Fareway Stores - 561",
    "city": "Waverly",
    "state": "IA",
    "address": "222 West Bremer Avenue",
    "zip": "50677",
    "lat": 42.72665,
    "lng": -92.474091
  },
  {
    "name": "Fareway Stores - 008",
    "city": "Dyersville",
    "state": "IA",
    "address": "1207 12th Avenue Southeast",
    "zip": "52040",
    "lat": 42.4749101,
    "lng": -91.1117712
  },
  {
    "name": "El Rancho - #25",
    "city": "Dallas",
    "state": "TX",
    "address": "4121 Gaston Avenue",
    "zip": "75246",
    "lat": 32.7952846,
    "lng": -96.7770311
  },
  {
    "name": "B&R Stores - #21",
    "city": "Lincoln",
    "state": "NE",
    "address": "1550 South Coddington Avenue",
    "zip": "68522",
    "lat": 40.7980369,
    "lng": -96.7475593
  },
  {
    "name": "Fareway Stores - 882",
    "city": "Eldora",
    "state": "IA",
    "address": "1232 14th Street",
    "zip": "50627",
    "lat": 42.3610164,
    "lng": -93.1012264
  },
  {
    "name": "Food City Supermarkets - Ranchland",
    "city": "El Paso",
    "state": "TX",
    "address": "7444 Gateway Boulevard East",
    "zip": "79915",
    "lat": 31.7643377,
    "lng": -106.3649327
  },
  {
    "name": "Ideal Market - Downtown",
    "city": "Johnstown",
    "state": "PA",
    "address": "339 Walnut St",
    "zip": "15901",
    "lat": 40.3246344,
    "lng": -78.922487
  },
  {
    "name": "Best Buy Market - #1",
    "city": "Mohave Valley",
    "state": "AZ",
    "address": "8828 Arizona 95",
    "zip": "86440",
    "lat": 34.900048,
    "lng": -114.597445
  },
  {
    "name": "Colorado Rancho Market - Colorado Rancho Market",
    "city": "Aurora",
    "state": "CO",
    "address": "11505 East Colfax Avenue",
    "zip": "80010",
    "lat": 39.7407692,
    "lng": -104.8537877
  },
  {
    "name": "John Brooks Supermarket - Socorro",
    "city": "Socorro",
    "state": "NM",
    "address": "312 North California Street",
    "zip": "87801",
    "lat": 34.0606016,
    "lng": -106.8914833
  },
  {
    "name": "Hatch's Super Foods - Hatch's Super Foods",
    "city": "Grant",
    "state": "NE",
    "address": "113 Central Avenue",
    "zip": "69140",
    "lat": 40.8402342,
    "lng": -101.7245779
  },
  {
    "name": "Super King Markets - #3",
    "city": "Altadena",
    "state": "CA",
    "address": "2260 Lincoln Avenue",
    "zip": "91001",
    "lat": 34.1844405,
    "lng": -118.1595052
  },
  {
    "name": "Super King Markets - #4",
    "city": "Claremont",
    "state": "CA",
    "address": "436 Auto Center Drive",
    "zip": "91711",
    "lat": 34.0798976,
    "lng": -117.7213645
  },
  {
    "name": "Bashas' - 028",
    "city": "Sedona",
    "state": "AZ",
    "address": "160 Coffee Pot Drive",
    "zip": "86336",
    "lat": 34.865559,
    "lng": -111.7953899
  },
  {
    "name": "San Eli Supermarkets - San Eli Supermercado",
    "city": "San Elizario",
    "state": "TX",
    "address": "13800 Socorro Road",
    "zip": "79849",
    "lat": 31.5648314,
    "lng": -106.2451672
  },
  {
    "name": "Foodland - #384",
    "city": "New Site",
    "state": "AL",
    "address": "13711 Alabama 22",
    "zip": "36256",
    "lat": 33.045626,
    "lng": -85.768973
  },
  {
    "name": "ARO - 17th South",
    "city": "Salt Lake City",
    "state": "UT",
    "address": "1638 South 900 East",
    "zip": "84105",
    "lat": 40.7339358,
    "lng": -111.866539
  },
  {
    "name": "Fareway Stores - 848",
    "city": "Newton",
    "state": "IA",
    "address": "120 North 3rd Avenue East",
    "zip": "50208",
    "lat": 41.701958,
    "lng": -93.0526902
  },
  {
    "name": "Bashas' - 017",
    "city": "Pinon",
    "state": "AZ",
    "address": "BIA ROUTE 4 AND US-41",
    "zip": "86510",
    "lat": 36.097991,
    "lng": -110.216769
  },
  {
    "name": "T&R Market - T&R Market",
    "city": "Gallup",
    "state": "NM",
    "address": "667 U.S. 491",
    "zip": "87301",
    "lat": 35.6048739,
    "lng": -108.778845
  },
  {
    "name": "Gene's Heartland Foods - Wamego",
    "city": "Wamego",
    "state": "KS",
    "address": "1003 U.S. 24",
    "zip": "66547",
    "lat": 39.20944,
    "lng": -96.3089011
  },
  {
    "name": "Yoke's Fresh Market - #20",
    "city": "Cheney",
    "state": "WA",
    "address": "4 Cheney Spokane Road",
    "zip": "99004",
    "lat": 47.4996113,
    "lng": -117.5636775
  },
  {
    "name": "El Ahorro Supermarket - #14",
    "city": "Houston",
    "state": "TX",
    "address": "6749 Airline Dr",
    "zip": "77076",
    "lat": 29.8606699,
    "lng": -95.3859391
  },
  {
    "name": "G.E. Foodland - #02",
    "city": "Dallas",
    "state": "TX",
    "address": "2025 Fort Worth Avenue",
    "zip": "75208",
    "lat": 32.7637029,
    "lng": -96.8552771
  },
  {
    "name": "G.E. Foodland - #03",
    "city": "Dallas",
    "state": "TX",
    "address": "200 Pleasant Drive",
    "zip": "75217",
    "lat": 32.714353,
    "lng": -96.6794237
  },
  {
    "name": "B&R Stores - #9",
    "city": "Lincoln",
    "state": "NE",
    "address": "2662 Cornhusker Highway",
    "zip": "68521",
    "lat": 40.843717,
    "lng": -96.6830751
  },
  {
    "name": "Fareway Stores - 067",
    "city": "Evansdale",
    "state": "IA",
    "address": "215 South Evans Road",
    "zip": "50707",
    "lat": 42.4758825,
    "lng": -92.2865099
  },
  {
    "name": "Fareway Stores - 461",
    "city": "Storm Lake",
    "state": "IA",
    "address": "731 Seneca Street",
    "zip": "50588",
    "lat": 42.6463709,
    "lng": -95.1959217
  },
  {
    "name": "Fareway Stores - 395",
    "city": "Webster City",
    "state": "IA",
    "address": "942 2nd Street",
    "zip": "50595",
    "lat": 42.4692308,
    "lng": -93.8274468
  },
  {
    "name": "Gooch's Foods - Gooch's Foods",
    "city": "Tribune",
    "state": "KS",
    "address": "503 Broadway Avenue",
    "zip": "67879",
    "lat": 38.4699949,
    "lng": -101.7527036
  },
  {
    "name": "ARO - Centerville",
    "city": "Centerville",
    "state": "UT",
    "address": "84 West Parrish Lane",
    "zip": "84014",
    "lat": 40.9214922,
    "lng": -111.8908478
  },
  {
    "name": "Payson Market - Payson Market",
    "city": "Payson",
    "state": "UT",
    "address": "586 North Main Street",
    "zip": "84651",
    "lat": 40.0519751,
    "lng": -111.7306309
  },
  {
    "name": "Fareway Stores - 019",
    "city": "Sioux City",
    "state": "IA",
    "address": "4016 Indian Hills Drive",
    "zip": "51108",
    "lat": 42.5388507,
    "lng": -96.3722238
  },
  {
    "name": "Gerrity's Supermarket - Luzerne",
    "city": "Luzerne",
    "state": "PA",
    "address": "552 Union Street",
    "zip": "18709",
    "lat": 41.2831526,
    "lng": -75.8968362
  },
  {
    "name": "L&R Sherman, LLC - #191",
    "city": "Hardeeville",
    "state": "SC",
    "address": "7 Main St",
    "zip": "29927",
    "lat": 32.28716,
    "lng": -81.0800793
  },
  {
    "name": "L&R Sherman, LLC - #193",
    "city": "Port Royal",
    "state": "SC",
    "address": "Royal Oaks Shopping Center",
    "zip": "29935",
    "lat": 32.3990282,
    "lng": -80.6837439
  },
  {
    "name": "Stauffers of Kissel Hill - Rohrerstown",
    "city": "Lancaster",
    "state": "PA",
    "address": "301 Rohrerstown Rd.",
    "zip": "17603",
    "lat": 40.04641,
    "lng": -76.360223
  },
  {
    "name": "Stewart's Marketplace - Roosevelt",
    "city": "Roosevelt",
    "state": "UT",
    "address": "245 U.S. 40",
    "zip": "84066",
    "lat": 40.2895786,
    "lng": -109.9952774
  },
  {
    "name": "Logan's Venture Foods - Fairfax Venture Foods",
    "city": "Fairview",
    "state": "OK",
    "address": "211 North Main Street",
    "zip": "73737",
    "lat": 36.2705634,
    "lng": -98.4798758
  },
  {
    "name": "Piggly Wiggly - Danny Manning - #467",
    "city": "Prichard",
    "state": "AL",
    "address": "3445 Saint Stephens Road",
    "zip": "36612",
    "lat": 30.7518821,
    "lng": -88.1182185
  },
  {
    "name": "B&R Stores - #1",
    "city": "Lincoln",
    "state": "NE",
    "address": "1709 Washington Street",
    "zip": "68502",
    "lat": 40.7976382,
    "lng": -96.6963117
  },
  {
    "name": "B&R Stores - #16",
    "city": "Lincoln",
    "state": "NE",
    "address": "4400 South 33rd Street",
    "zip": "68516",
    "lat": 40.767639,
    "lng": -96.670976
  },
  {
    "name": "Bashas' - 065",
    "city": "Parker",
    "state": "AZ",
    "address": "1020 West Arizona Avenue",
    "zip": "85344",
    "lat": 34.1470119,
    "lng": -114.2896556
  },
  {
    "name": "Mike's Foodtown - Mike's Foodtown",
    "city": "Beaver",
    "state": "UT",
    "address": "270 North Main Street",
    "zip": "84713",
    "lat": 38.2778435,
    "lng": -112.6406298
  },
  {
    "name": "El Ahorro Supermarket - #20",
    "city": "Houston",
    "state": "TX",
    "address": "3700 Barker Cypress Rd",
    "zip": "77084",
    "lat": 29.8226535,
    "lng": -95.6865189
  },
  {
    "name": "El Ahorro Supermarket - #2",
    "city": "Houston",
    "state": "TX",
    "address": "12814 Hempstead Rd",
    "zip": "77092",
    "lat": 29.8344967,
    "lng": -95.5048312
  },
  {
    "name": "El Ahorro Supermarket - #7",
    "city": "Houston",
    "state": "TX",
    "address": "11132 Aldine Westfield Rd",
    "zip": "77093",
    "lat": 29.8792226,
    "lng": -95.3551144
  },
  {
    "name": "El Ahorro Supermarket - #44",
    "city": "Houston",
    "state": "TX",
    "address": "4711 W 34th St",
    "zip": "77092",
    "lat": 29.8184716,
    "lng": -95.4601554
  },
  {
    "name": "B&R Stores - #11",
    "city": "Lincoln",
    "state": "NE",
    "address": "5440 South 56th Street",
    "zip": "68516",
    "lat": 40.7585061,
    "lng": -96.6448127
  },
  {
    "name": "B&R Stores - #19",
    "city": "Grand Island",
    "state": "NE",
    "address": "1602 West 2nd Street",
    "zip": "68801",
    "lat": 40.9187654,
    "lng": -98.3556519
  },
  {
    "name": "Kykotsmovi Village Store - Kykotsmovi Village Store",
    "city": "Kykotsmovi Village",
    "state": "AZ",
    "address": "112 Main Street",
    "zip": "86039",
    "lat": 35.876741,
    "lng": -110.6190909
  },
  {
    "name": "El Ahorro Supermarket - #72",
    "city": "Houston",
    "state": "TX",
    "address": "2598 FM 1960",
    "zip": "77073",
    "lat": 30.0220177,
    "lng": -95.3901106
  },
  {
    "name": "ARO - Olympus",
    "city": "Salt Lake City",
    "state": "UT",
    "address": "3981 Wasatch Boulevard",
    "zip": "84124",
    "lat": 40.6848497,
    "lng": -111.794588
  },
  {
    "name": "Gillis Enterprises LLC - #190",
    "city": "Whitmire",
    "state": "SC",
    "address": "26490 SC-121",
    "zip": "29178",
    "lat": 34.5066246,
    "lng": -81.600979
  },
  {
    "name": "Bashas' - 160",
    "city": "Tucson",
    "state": "AZ",
    "address": "2000 West River Road",
    "zip": "85704",
    "lat": 32.3048249,
    "lng": -111.008238
  },
  {
    "name": "El Ahorro Supermarket - #11",
    "city": "Conroe",
    "state": "TX",
    "address": "225 S Main St",
    "zip": "77301",
    "lat": 30.3059337,
    "lng": -95.4575503
  },
  {
    "name": "Glazier's Market - Glazier's Market",
    "city": "Kanab",
    "state": "UT",
    "address": "264 South 100 East",
    "zip": "84741",
    "lat": 37.043788,
    "lng": -112.5272099
  },
  {
    "name": "Bashas' - 021",
    "city": "Casa Grande",
    "state": "AZ",
    "address": "1162 East Florence Boulevard",
    "zip": "85122",
    "lat": 32.8805733,
    "lng": -111.7364209
  },
  {
    "name": "Bashas' - 012",
    "city": "Phoenix",
    "state": "AZ",
    "address": "2124 East McDowell Road",
    "zip": "85006",
    "lat": 33.4669407,
    "lng": -112.0366557
  },
  {
    "name": "Bashas' - 010",
    "city": "Mesa",
    "state": "AZ",
    "address": "1342 East Main Street",
    "zip": "85203",
    "lat": 33.4161314,
    "lng": -111.8018236
  },
  {
    "name": "Porter's - Big Spring",
    "city": "Big Spring",
    "state": "TX",
    "address": "501 Birdwell Lane",
    "zip": "79720",
    "lat": 32.2582202,
    "lng": -101.4511281
  },
  {
    "name": "Gooch's Foods - Baca County Foods",
    "city": "Springfield",
    "state": "CO",
    "address": "165 West 11th Avenue",
    "zip": "81073",
    "lat": 37.4034054,
    "lng": -102.617521
  },
  {
    "name": "Velasquez Group L.P. - Checotah",
    "city": "Checotah",
    "state": "OK",
    "address": "1000 West Gentry Avenue",
    "zip": "74426",
    "lat": 35.4708403,
    "lng": -95.5316276
  },
  {
    "name": "Walton Big M Supermarket - Walton Big M Supermarket",
    "city": "Walton",
    "state": "NY",
    "address": "204 Delaware St",
    "zip": "13856",
    "lat": 42.1700074,
    "lng": -75.1321908
  },
  {
    "name": "Gates Big M Market - Gates Big M Market",
    "city": "Rochester",
    "state": "NY",
    "address": "1520 Spencerport Rd # 1",
    "zip": "14606",
    "lat": 43.1754193,
    "lng": -77.7313577
  },
  {
    "name": "Windsor Big M Supermarket - Windsor Big M Supermarket",
    "city": "Windsor",
    "state": "NY",
    "address": "640 Old Route 17",
    "zip": "13865",
    "lat": 42.0694364,
    "lng": -75.6322959
  },
  {
    "name": "El Rancho - #30",
    "city": "McKinney",
    "state": "TX",
    "address": "817 North McDonald Street",
    "zip": "75069",
    "lat": 33.2062596,
    "lng": -96.6120343
  },
  {
    "name": "Country Fresh Market - Country Fresh Market",
    "city": "Benton",
    "state": "PA",
    "address": "4435 Red Rock Rd #7606",
    "zip": "17814",
    "lat": 41.2073298,
    "lng": -76.3795775
  },
  {
    "name": "Piggly Wiggly 47 - #47",
    "city": "Buchanan",
    "state": "GA",
    "address": "116 Courthouse Square",
    "zip": "30113",
    "lat": 33.8012308,
    "lng": -85.1887347
  },
  {
    "name": "Reynolds Market - Baker",
    "city": "Baker",
    "state": "MT",
    "address": "216 Shopping Ctr Dr #79",
    "zip": "59313",
    "lat": 46.36612,
    "lng": -104.275217
  },
  {
    "name": "Fareway Stores - 015",
    "city": "Denison",
    "state": "IA",
    "address": "609 Arrowhead Road",
    "zip": "51442",
    "lat": 42.0249328,
    "lng": -95.3729225
  },
  {
    "name": "Fareway Stores - 849",
    "city": "Emmetsburg",
    "state": "IA",
    "address": "2008 12th Street",
    "zip": "50536",
    "lat": 43.1089726,
    "lng": -94.6770775
  },
  {
    "name": "Fareway Stores - 168",
    "city": "Peosta",
    "state": "IA",
    "address": "8400 NICC Drive",
    "zip": "52068",
    "lat": 42.4449537,
    "lng": -90.8463684
  },
  {
    "name": "Fareway Stores - 737",
    "city": "Grinnell",
    "state": "IA",
    "address": "727 West Street",
    "zip": "50112",
    "lat": 41.7413431,
    "lng": -92.7284521
  },
  {
    "name": "Food City - Turner",
    "city": "Turner",
    "state": "ME",
    "address": "1355 Auburn Rd #5",
    "zip": "04282",
    "lat": 44.2702309,
    "lng": -70.2677157
  },
  {
    "name": "Food For Less PC - 284",
    "city": "Moultrie",
    "state": "GA",
    "address": "1209 1st Avenue Southeast",
    "zip": "31768",
    "lat": 31.1803073,
    "lng": -83.7736044
  },
  {
    "name": "Fareway Stores - 933",
    "city": "Urbandale",
    "state": "IA",
    "address": "8450 Meredith Drive",
    "zip": "50322",
    "lat": 41.6429216,
    "lng": -93.7342318
  },
  {
    "name": "El Rancho - #22",
    "city": "Odessa",
    "state": "TX",
    "address": "1315 East 8th Street",
    "zip": "79761",
    "lat": 31.8593169,
    "lng": -102.3571622
  },
  {
    "name": "El Rancho - #10",
    "city": "Dallas",
    "state": "TX",
    "address": "655 West Illinois Avenue",
    "zip": "75224",
    "lat": 32.7209877,
    "lng": -96.8317333
  },
  {
    "name": "El Rancho - #12",
    "city": "Lewisville",
    "state": "TX",
    "address": "701 South Stemmons Freeway",
    "zip": "75067",
    "lat": 33.0381201,
    "lng": -97.0043443
  },
  {
    "name": "Ridley's Family Markets - Wangsgards",
    "city": "Ogden",
    "state": "UT",
    "address": "145 North Harrisville Road",
    "zip": "84404",
    "lat": 41.2599437,
    "lng": -111.9725566
  },
  {
    "name": "Ridley's Family Markets - Pinedale",
    "city": "Pinedale",
    "state": "WY",
    "address": "341 East Pine Street",
    "zip": "82941",
    "lat": 42.867258,
    "lng": -109.855701
  },
  {
    "name": "B&R Stores - #18",
    "city": "Columbus",
    "state": "NE",
    "address": "3318 23rd Street",
    "zip": "68601",
    "lat": 41.4396388,
    "lng": -97.3690443
  },
  {
    "name": "Northgate BiLo - Northgate BiLo",
    "city": "Harmony",
    "state": "PA",
    "address": "3 Northgate Plaza #2",
    "zip": "16037",
    "lat": 40.8024057,
    "lng": -80.1363161
  },
  {
    "name": "Hankey's Riverside - Hankey's Riverside",
    "city": "Ford City",
    "state": "PA",
    "address": "25 Manor Dr",
    "zip": "16226",
    "lat": 40.7645298,
    "lng": -79.5244385
  },
  {
    "name": "Larry's Big Star - #303",
    "city": "Lexington",
    "state": "AL",
    "address": "10031 Alabama 64",
    "zip": "35648",
    "lat": 34.9721782,
    "lng": -87.3717539
  },
  {
    "name": "Fareway Stores - 940",
    "city": "Atlantic",
    "state": "IA",
    "address": "301 Poplar Street",
    "zip": "50022",
    "lat": 41.4080754,
    "lng": -95.0154018
  },
  {
    "name": "Fareway Stores - 009",
    "city": "Burlington",
    "state": "IA",
    "address": "920 Lawrence Drive",
    "zip": "52601",
    "lat": 40.7990429,
    "lng": -91.1390176
  },
  {
    "name": "Yoke's Fresh Market - #9",
    "city": "Spokane",
    "state": "WA",
    "address": "3321 West Indian Trail Road",
    "zip": "99208",
    "lat": 47.7170225,
    "lng": -117.4616349
  },
  {
    "name": "Ideal Market - Geistown",
    "city": "Johnstown",
    "state": "PA",
    "address": "2449 Bedford St",
    "zip": "15904",
    "lat": 40.2957765,
    "lng": -78.871615
  },
  {
    "name": "Kennedy Shurfine Supermarket - Kennedy Shurfine Supermarket",
    "city": "Kennedy",
    "state": "NY",
    "address": "666 East W Main St",
    "zip": "14747",
    "lat": 42.1577121,
    "lng": -79.1017094
  },
  {
    "name": "Cochranton Market Place - Cochranton Market Place",
    "city": "Cochranton",
    "state": "PA",
    "address": "115 Adams St",
    "zip": "16314",
    "lat": 41.5207012,
    "lng": -80.047281
  },
  {
    "name": "Bob's Supermarket - Bob's Supermarket",
    "city": "Wolcott",
    "state": "NY",
    "address": "12030 Park Ln",
    "zip": "14590",
    "lat": 43.2195743,
    "lng": -76.8132278
  },
  {
    "name": "Spencer Shurfine Foodmart - Spencer Shurfine Foodmart",
    "city": "Spencer",
    "state": "NY",
    "address": "15 N Main St",
    "zip": "14883",
    "lat": 42.2102754,
    "lng": -76.4928078
  },
  {
    "name": "Farm Fresh Foods - Farm Fresh Foods",
    "city": "Jamestown",
    "state": "NY",
    "address": "703 W 3rd St",
    "zip": "14701",
    "lat": 42.0936254,
    "lng": -79.254894
  },
  {
    "name": "Piggly Wiggly - Danny Manning - #463",
    "city": "Chunchula",
    "state": "AL",
    "address": "10760 Lott Road",
    "zip": "36521",
    "lat": 30.9152085,
    "lng": -88.2773975
  },
  {
    "name": "Peterson's Fresh Market - Peterson's Fresh Market",
    "city": "Riverton",
    "state": "UT",
    "address": "1784 12600 South",
    "zip": "84065",
    "lat": 40.5237683,
    "lng": -111.9404997
  },
  {
    "name": "Reynolds Market - Glendive",
    "city": "Glendive",
    "state": "MT",
    "address": "1014 West Bell Street",
    "zip": "59330",
    "lat": 47.1060224,
    "lng": -104.7270115
  },
  {
    "name": "Fareway Stores - 077",
    "city": "Norwalk",
    "state": "IA",
    "address": "1711 Sunset Drive",
    "zip": "50211",
    "lat": 41.4839971,
    "lng": -93.676823
  },
  {
    "name": "Fareway Stores - 192",
    "city": "Tea",
    "state": "SD",
    "address": "720 East 1st Street",
    "zip": "57064",
    "lat": 43.4471954,
    "lng": -96.8273119
  },
  {
    "name": "Bashas' -  094",
    "city": "Phoenix",
    "state": "AZ",
    "address": "3442 West Van Buren Street",
    "zip": "85009",
    "lat": 33.4527495,
    "lng": -112.1335344
  },
  {
    "name": "Bashas' - 011",
    "city": "Phoenix",
    "state": "AZ",
    "address": "4855 East Warner Elliot Loop",
    "zip": "85044",
    "lat": 33.3485807,
    "lng": -111.9870238
  },
  {
    "name": "Ridley's Family Markets - Pocatello",
    "city": "Pocatello",
    "state": "ID",
    "address": "911 North Main Street",
    "zip": "83204",
    "lat": 42.8678661,
    "lng": -112.4582321
  },
  {
    "name": "Dutch's Market - Dutch's Market",
    "city": "Greentown",
    "state": "PA",
    "address": "1564 Pennsylvania 507",
    "zip": "18426",
    "lat": 41.3257132,
    "lng": -75.3054894
  },
  {
    "name": "El Rancho - #35",
    "city": "Stafford",
    "state": "TX",
    "address": "11711 West Bellfort Avenue",
    "zip": "77477",
    "lat": 29.6564452,
    "lng": -95.5840212
  },
  {
    "name": "Fareway Stores - 993",
    "city": "North Liberty",
    "state": "IA",
    "address": "615 Westwood Drive",
    "zip": "52317",
    "lat": 41.74033,
    "lng": -91.608628
  },
  {
    "name": "Fareway Stores - 384",
    "city": "Boone",
    "state": "IA",
    "address": "1711 Hawkeye Drive",
    "zip": "50036",
    "lat": 42.0381875,
    "lng": -93.8676607
  },
  {
    "name": "Fareway Stores - 983",
    "city": "Grimes",
    "state": "IA",
    "address": "351 Southeast Gateway Drive",
    "zip": "50111",
    "lat": 41.6866229,
    "lng": -93.7788961
  },
  {
    "name": "Stokes Market  - Burley",
    "city": "Burley",
    "state": "ID",
    "address": "1310 Pomerelle Avenue",
    "zip": "83318",
    "lat": 42.5365103,
    "lng": -113.7781293
  },
  {
    "name": "Stokes Market  - Salem",
    "city": "Salem",
    "state": "UT",
    "address": "795 Utah 198",
    "zip": "84653",
    "lat": 40.0666422,
    "lng": -111.6666887
  },
  {
    "name": "Lowes Foods - 161 (Prototype Store)",
    "city": "Clemmons",
    "state": "NC",
    "address": "2501 Lewisville Clemmons Road",
    "zip": "27012",
    "lat": 36.0305865,
    "lng": -80.3821641
  },
  {
    "name": "Ridley's Family Markets - Winnemucca",
    "city": "Winnemucca",
    "state": "NV",
    "address": "1125 West Winnemucca Boulevard",
    "zip": "89445",
    "lat": 40.9642321,
    "lng": -117.7438577
  },
  {
    "name": "Ridley's Family Markets - Pocatello Creek",
    "city": "Pocatello",
    "state": "ID",
    "address": "1000 Pocatello Creek Road",
    "zip": "83201",
    "lat": 42.8937752,
    "lng": -112.4411092
  },
  {
    "name": "Fareway Stores - 470",
    "city": "Perry",
    "state": "IA",
    "address": "1315 Willis Avenue",
    "zip": "50220",
    "lat": 41.8376559,
    "lng": -94.1028537
  },
  {
    "name": "Fareway Stores - 922",
    "city": "New Hampton",
    "state": "IA",
    "address": "102 South Water Avenue",
    "zip": "50659",
    "lat": 43.0578891,
    "lng": -92.312072
  },
  {
    "name": "Fareway Stores - 941",
    "city": "Greenfield",
    "state": "IA",
    "address": "212 Southwest Kent Street",
    "zip": "50849",
    "lat": 41.302579,
    "lng": -94.4639644
  },
  {
    "name": "Fareway Stores - 058",
    "city": "Orange City",
    "state": "IA",
    "address": "512 8th Street Southeast",
    "zip": "51041",
    "lat": 42.9969787,
    "lng": -96.0523662
  },
  {
    "name": "Gerrity's Supermarket - Clarks Summit",
    "city": "Clarks Summit",
    "state": "PA",
    "address": "100 Old Lackawanna Trail",
    "zip": "18411",
    "lat": 41.4954949,
    "lng": -75.7079818
  },
  {
    "name": "Hershey's Innovation Center - Hershey's Innovation Center",
    "city": "Hershey",
    "state": "PA",
    "address": "100 Crystal A Drive",
    "zip": "17033",
    "lat": 40.3010198,
    "lng": -76.648536
  },
  {
    "name": "Food For Less PC - 287",
    "city": "Donalsonville",
    "state": "GA",
    "address": "1000 South Tennille Avenue",
    "zip": "39845",
    "lat": 31.0297743,
    "lng": -84.8804621
  },
  {
    "name": "Fareway Stores - 792",
    "city": "Toledo",
    "state": "IA",
    "address": "1005 South County Road",
    "zip": "52342",
    "lat": 41.9841563,
    "lng": -92.5803327
  },
  {
    "name": "Fareway Stores - 126",
    "city": "Faribault",
    "state": "MN",
    "address": "430 2nd Avenue Northwest",
    "zip": "55021",
    "lat": 44.2954678,
    "lng": -93.2724299
  },
  {
    "name": "Fareway Stores - 025",
    "city": "Clinton",
    "state": "IA",
    "address": "1350 North 11th Street",
    "zip": "52732",
    "lat": 41.8607249,
    "lng": -90.2123608
  },
  {
    "name": "Bashas' - 048",
    "city": "Tempe",
    "state": "AZ",
    "address": "1761 East Warner Road",
    "zip": "85284",
    "lat": 33.3334,
    "lng": -111.912688
  },
  {
    "name": "Super King Markets - #8",
    "city": "Glendale",
    "state": "CA",
    "address": "6501 San Fernando Road",
    "zip": "91201",
    "lat": 34.1669532,
    "lng": -118.2914882
  },
  {
    "name": "Gerrity's Supermarket - Moosic",
    "city": "Moosic",
    "state": "PA",
    "address": "4015 Birney Avenue",
    "zip": "18507",
    "lat": 41.3691351,
    "lng": -75.7103445
  },
  {
    "name": "Quinn's Market - Pittston",
    "city": "Pittston",
    "state": "PA",
    "address": "401 Kennedy Boulevard",
    "zip": "18640",
    "lat": 41.3200182,
    "lng": -75.7935585
  },
  {
    "name": "Fareway Stores - 044",
    "city": "Bettendorf",
    "state": "IA",
    "address": "3800 Belmont Road",
    "zip": "52722",
    "lat": 41.5572627,
    "lng": -90.480078
  },
  {
    "name": "Fareway Stores - 625",
    "city": "Oskaloosa",
    "state": "IA",
    "address": "311 3rd Avenue West",
    "zip": "52577",
    "lat": 41.2929926,
    "lng": -92.6482433
  },
  {
    "name": "Fareway Stores - 938",
    "city": "Shenandoah",
    "state": "IA",
    "address": "1007 Fremont Street",
    "zip": "51601",
    "lat": 40.7562546,
    "lng": -95.3838943
  },
  {
    "name": "Bashas' - 046",
    "city": "Queen Creek",
    "state": "AZ",
    "address": "23760 South Power Road",
    "zip": "85142",
    "lat": 33.2332234,
    "lng": -111.6874641
  },
  {
    "name": "El Rancho - #09",
    "city": "Arlington",
    "state": "TX",
    "address": "1909 East Park Row Drive",
    "zip": "76010",
    "lat": 32.7221345,
    "lng": -97.0789733
  },
  {
    "name": "Food Outlet - #301",
    "city": "Florence",
    "state": "AL",
    "address": "2503 North Wood Avenue",
    "zip": "35630",
    "lat": 34.8370854,
    "lng": -87.6876746
  },
  {
    "name": "Piggly Wiggly 5, 18, 29 - #18",
    "city": "Amory",
    "state": "MS",
    "address": "105 Mississippi 6",
    "zip": "38821",
    "lat": 33.9936845,
    "lng": -88.492038
  },
  {
    "name": "Piggly Wiggly 6, 15, 16, and 20 - #16",
    "city": "Calhoun City",
    "state": "MS",
    "address": "595 Veterans Avenue",
    "zip": "38916",
    "lat": 33.8561842,
    "lng": -89.2982147
  },
  {
    "name": "Piggly Wiggly - Tuscaloosa - #251",
    "city": "Tuscaloosa",
    "state": "AL",
    "address": "1721 Greensboro Avenue",
    "zip": "35401",
    "lat": 33.1968094,
    "lng": -87.5621077
  },
  {
    "name": "Elk County Foods - Johnsonburg",
    "city": "Johnsonburg",
    "state": "PA",
    "address": "444 Wilcox Rd",
    "zip": "15845",
    "lat": 41.4994497,
    "lng": -78.6791405
  },
  {
    "name": "Reynold's Foodliner - #278",
    "city": "Hazlehurst",
    "state": "GA",
    "address": "32 South Tallahassee Street",
    "zip": "31539",
    "lat": 31.8654092,
    "lng": -82.6005927
  },
  {
    "name": "Fareway Stores - 137",
    "city": "Polk City",
    "state": "IA",
    "address": "1101 South 5th Street",
    "zip": "50226",
    "lat": 41.763884,
    "lng": -93.718688
  },
  {
    "name": "Cleghern's Piggly Wiggly - #309",
    "city": "Erin",
    "state": "TN",
    "address": "3611 West Main Street",
    "zip": "37061",
    "lat": 36.3165832,
    "lng": -87.7132017
  },
  {
    "name": "Piggly Wiggly - Danny Manning - #470",
    "city": "Mobile",
    "state": "AL",
    "address": "1360 Navco Road",
    "zip": "36605",
    "lat": 30.646331,
    "lng": -88.102605
  },
  {
    "name": "Buehler's Fresh Foods - Wooster Milltown",
    "city": "Wooster",
    "state": "OH",
    "address": "3540 Burbank Road",
    "zip": "44691",
    "lat": 40.8430587,
    "lng": -81.9422743
  },
  {
    "name": "Piggly Wiggly 23 - #23",
    "city": "Bruce",
    "state": "MS",
    "address": "223 West Calhoun Street",
    "zip": "38915",
    "lat": 33.9898301,
    "lng": -89.3514406
  },
  {
    "name": "Piggly Wiggly 234 and 236 - #234",
    "city": "Sylacauga",
    "state": "AL",
    "address": "1244 Old Talladega Highway",
    "zip": "35150",
    "lat": 33.1846982,
    "lng": -86.243718
  },
  {
    "name": "Fareway Stores - 190",
    "city": "Cedar Falls",
    "state": "IA",
    "address": "4500 South Main Street",
    "zip": "50613",
    "lat": 42.4972095,
    "lng": -92.4458758
  },
  {
    "name": "Thompson's Marketplace - Thompson's Marketplace",
    "city": "Elmore City",
    "state": "OK",
    "address": "603 Oklahoma 29",
    "zip": "73433",
    "lat": 34.6227618,
    "lng": -97.3935648
  },
  {
    "name": "Greene Great American Inc - Greene",
    "city": "Greene",
    "state": "NY",
    "address": "95 S Chenango St",
    "zip": "13778",
    "lat": 42.3224906,
    "lng": -75.7756475
  },
  {
    "name": "Arlan's Market - #16-San Antonio",
    "city": "San Antonio",
    "state": "TX",
    "address": "340 Enrique M. Barrera Pkwy",
    "zip": "78237",
    "lat": 29.4284233,
    "lng": -98.5668652
  },
  {
    "name": "Food For Less PC - 291",
    "city": "Panama City",
    "state": "FL",
    "address": "1350 15th Street",
    "zip": "32401",
    "lat": 30.17715,
    "lng": -85.682693
  },
  {
    "name": "Schnucks - Demo",
    "city": "Austin",
    "state": "TX",
    "address": "3215 Gonzales Street",
    "zip": "78702",
    "lat": 30.2582744,
    "lng": -97.704568
  },
  {
    "name": "Piggly Wiggly 167 - #167",
    "city": "Sebastopol",
    "state": "MS",
    "address": "16851 Mississippi 21",
    "zip": "39359",
    "lat": 32.5658758,
    "lng": -89.342482
  },
  {
    "name": "Piggly Wiggly - Danny Manning - #464",
    "city": "Saraland",
    "state": "AL",
    "address": "719 Saraland Boulevard South",
    "zip": "36571",
    "lat": 30.8060036,
    "lng": -88.0738346
  },
  {
    "name": "Bashas' - 096",
    "city": "Tempe",
    "state": "AZ",
    "address": "1338 East Apache Boulevard",
    "zip": "85281",
    "lat": 33.4154367,
    "lng": -111.9156322
  },
  {
    "name": "Mickey's Save-Way Market - Mickey's Save-Way Market",
    "city": "Cuba",
    "state": "NM",
    "address": "6392 U.S. 550",
    "zip": "87013",
    "lat": 36.0173114,
    "lng": -106.9604869
  },
  {
    "name": "CFSI/SCFI Corp - First Choice Market",
    "city": "Walsenburg",
    "state": "CO",
    "address": "801 Walsen Avenue",
    "zip": "81089",
    "lat": 37.6343345,
    "lng": -104.7896274
  },
  {
    "name": "Ridley's Family Markets - Kimberly",
    "city": "Hansen",
    "state": "ID",
    "address": "210 Main Street South",
    "zip": "83334",
    "lat": 42.5321093,
    "lng": -114.3643827
  },
  {
    "name": "Ridley's Family Markets - Kemmerer",
    "city": "Kemmerer",
    "state": "WY",
    "address": "620 Pine Avenue",
    "zip": "83101",
    "lat": 41.7966193,
    "lng": -110.5383985
  },
  {
    "name": "Gerald Hocker - Hocker's Super Center",
    "city": "Ocean View",
    "state": "DE",
    "address": "34960 Atlantic Avenue",
    "zip": "19970",
    "lat": 38.5503241,
    "lng": -75.1308225
  },
  {
    "name": "Velasquez Group L.P. - Shamrock",
    "city": "Shamrock",
    "state": "TX",
    "address": "1814 Bill Mack Street",
    "zip": "79079",
    "lat": 35.2334549,
    "lng": -100.2473072
  },
  {
    "name": "Carone's Market - Freeland",
    "city": "Freeland",
    "state": "PA",
    "address": "400 Front Street",
    "zip": "18224",
    "lat": 41.01823,
    "lng": -75.8919718
  },
  {
    "name": "Kline's Grocery - Kline's Grocery",
    "city": "Shady Grove",
    "state": "PA",
    "address": "1940 Buchanan Trail East",
    "zip": "17256",
    "lat": 39.7776924,
    "lng": -77.6701213
  },
  {
    "name": "Cox Market - Cox Market",
    "city": "Monongahela",
    "state": "PA",
    "address": "711 Route 481",
    "zip": "15063",
    "lat": 40.1739474,
    "lng": -79.9425744
  },
  {
    "name": "ARO - Highland",
    "city": "Highland",
    "state": "UT",
    "address": "5353 West 11000 North",
    "zip": "84003",
    "lat": 40.4309046,
    "lng": -111.7868087
  },
  {
    "name": "John Brooks Supermarket - Albuquerque",
    "city": "Albuquerque",
    "state": "NM",
    "address": "1130 Candelaria Road Northwest",
    "zip": "87107",
    "lat": 35.1219886,
    "lng": -106.6546473
  },
  {
    "name": "Big Bunny Market - Big Bunny Market",
    "city": "Southbridge",
    "state": "MA",
    "address": "942 Main St",
    "zip": "01550",
    "lat": 42.0828764,
    "lng": -72.0478333
  },
  {
    "name": "ARO - 47th South",
    "city": "Salt Lake City",
    "state": "UT",
    "address": "1825 West 4700 South",
    "zip": "84118",
    "lat": 40.6664096,
    "lng": -111.9416053
  },
  {
    "name": "Bashas' - 100",
    "city": "Tucson",
    "state": "AZ",
    "address": "3275 North Swan Road",
    "zip": "85712",
    "lat": 32.2665508,
    "lng": -110.8935637
  },
  {
    "name": "Dave's Grocery - Dave's Grocery",
    "city": "Fort Sumner",
    "state": "NM",
    "address": "4th & Avenue B",
    "zip": "88119",
    "lat": 34.472513,
    "lng": -104.245023
  },
  {
    "name": "Food City - Turner Falls",
    "city": "Montague",
    "state": "MA",
    "address": "250 Avenue A",
    "zip": "01376",
    "lat": 42.6051078,
    "lng": -72.5614273
  },
  {
    "name": "RBG Foods - #66",
    "city": "Bowdon",
    "state": "GA",
    "address": "136 Lovvorn Avenue",
    "zip": "30108",
    "lat": 33.5403103,
    "lng": -85.2522201
  },
  {
    "name": "Bashas' - 105",
    "city": "Phoenix",
    "state": "AZ",
    "address": "3514 West Glendale Avenue",
    "zip": "85051",
    "lat": 33.53989,
    "lng": -112.1351424
  },
  {
    "name": "Ed & Jean's Market - Ed & Jean's Market",
    "city": "Auburn",
    "state": "NY",
    "address": "95 Rochester St",
    "zip": "13021",
    "lat": 43.0360108,
    "lng": -76.6312081
  },
  {
    "name": "Harrington's Shurfine Grocery - Harrington's Shurfine Grocery",
    "city": "Belfast",
    "state": "NY",
    "address": "7957 NY-19",
    "zip": "14711",
    "lat": 42.3448264,
    "lng": -78.1173834
  },
  {
    "name": "Piggly Wiggly 102 and 103 - #103",
    "city": "Eutaw",
    "state": "AL",
    "address": "131 Greensboro Street",
    "zip": "35462",
    "lat": 32.840508,
    "lng": -87.8853838
  },
  {
    "name": "Super King Markets - #2",
    "city": "Los Angeles",
    "state": "CA",
    "address": "2716 North San Fernando Road",
    "zip": "90065",
    "lat": 34.1096611,
    "lng": -118.2430471
  },
  {
    "name": "Don's Market - Don's Market",
    "city": "Paonia",
    "state": "CO",
    "address": "213 2nd Street",
    "zip": "81428",
    "lat": 38.8664944,
    "lng": -107.5970255
  },
  {
    "name": "Bashas' - 079",
    "city": "Tucson",
    "state": "AZ",
    "address": "8360 North Thornydale Road",
    "zip": "85741",
    "lat": 32.3579573,
    "lng": -111.044271
  },
  {
    "name": "Bashas' - 132",
    "city": "Phoenix",
    "state": "AZ",
    "address": "2709 West Van Buren Street",
    "zip": "85009",
    "lat": 33.4510967,
    "lng": -112.1180041
  },
  {
    "name": "Bashas' - 140",
    "city": "Phoenix",
    "state": "AZ",
    "address": "6544 West Thomas Road",
    "zip": "85033",
    "lat": 33.4815091,
    "lng": -112.2012375
  },
  {
    "name": "Bashas' - 142",
    "city": "Phoenix",
    "state": "AZ",
    "address": "6020 North 59th Avenue",
    "zip": "85031",
    "lat": 33.5071584,
    "lng": -112.1862139
  },
  {
    "name": "Bashas' - 149",
    "city": "Phoenix",
    "state": "AZ",
    "address": "6025 North 27th Avenue",
    "zip": "85017",
    "lat": 33.5252352,
    "lng": -112.1158427
  },
  {
    "name": "Bashas' - 073",
    "city": "Mesa",
    "state": "AZ",
    "address": "2864 North Power Road",
    "zip": "85215",
    "lat": 33.4678995,
    "lng": -111.6851046
  },
  {
    "name": "Rainbow Grocery - Rainbow Grocery",
    "city": "South Fork",
    "state": "CO",
    "address": "30359 U.S. 160",
    "zip": "81154",
    "lat": 37.6712295,
    "lng": -106.6398836
  },
  {
    "name": "Stewart's Food Store - Stewart's Food Store",
    "city": "Olney",
    "state": "TX",
    "address": "1204 West Main Street",
    "zip": "76374",
    "lat": 33.3715372,
    "lng": -98.7697597
  },
  {
    "name": "P&D Grocery - P&D Grocery",
    "city": "Mancos",
    "state": "CO",
    "address": "280 Highway 160 E Frontage Road",
    "zip": "81328",
    "lat": 37.3479381,
    "lng": -108.2867364
  },
  {
    "name": "The Grocery Store - The Grocery Store",
    "city": "Bayfield",
    "state": "CO",
    "address": "381 East Colorado Drive",
    "zip": "81122",
    "lat": 37.2326271,
    "lng": -107.5958696
  },
  {
    "name": "Food City - Saint Albans City",
    "city": "Saint Albans City",
    "state": "VT",
    "address": "101 Lake St",
    "zip": "05478",
    "lat": 44.812059,
    "lng": -73.0872171
  },
  {
    "name": "Piggly Wiggly 130 and 134 - #130",
    "city": "Troy",
    "state": "AL",
    "address": "710 North 3 Notch Street",
    "zip": "36081",
    "lat": 31.8143919,
    "lng": -85.9715538
  },
  {
    "name": "ARO - Provo",
    "city": "Provo",
    "state": "UT",
    "address": "560 West Center Street",
    "zip": "84601",
    "lat": 40.2341608,
    "lng": -111.6687741
  },
  {
    "name": "ARO - 21st South",
    "city": "Salt Lake City",
    "state": "UT",
    "address": "2040 South 2300 East",
    "zip": "84108",
    "lat": 40.7259763,
    "lng": -111.8262102
  },
  {
    "name": "Bashas' - 027",
    "city": "Sells",
    "state": "AZ",
    "address": "111 Maint St",
    "zip": "85634",
    "lat": 31.914712,
    "lng": -111.887189
  },
  {
    "name": "Best Buy Market - #2",
    "city": "Bullhead City",
    "state": "AZ",
    "address": "970 Hancock Road",
    "zip": "86442",
    "lat": 35.1077112,
    "lng": -114.6150449
  },
  {
    "name": "Farmers Market - Flora Vista",
    "city": "Flora Vista",
    "state": "NM",
    "address": "816 New Mexico 516",
    "zip": "87415",
    "lat": 36.8026255,
    "lng": -108.0875614
  },
  {
    "name": "Velasquez Group L.P. - Wellington",
    "city": "Wellington",
    "state": "TX",
    "address": "1100 8th Street",
    "zip": "79095",
    "lat": 34.8569608,
    "lng": -100.2117421
  },
  {
    "name": "Food City - Lisbon Falls",
    "city": "Lisbon",
    "state": "ME",
    "address": "583 Lisbon St # 1",
    "zip": "04252",
    "lat": 44.0039616,
    "lng": -70.0733461
  },
  {
    "name": "Porter's - Marfa",
    "city": "Marfa",
    "state": "TX",
    "address": "717 West San Antonio Street",
    "zip": "79843",
    "lat": 30.3069097,
    "lng": -104.0276416
  },
  {
    "name": "Porter's - Alpine 1",
    "city": "Alpine",
    "state": "TX",
    "address": "101 East Sul Ross Avenue",
    "zip": "79830",
    "lat": 30.3600171,
    "lng": -103.6615073
  },
  {
    "name": "Fenn Foods - Pecos",
    "city": "Pecos",
    "state": "TX",
    "address": "810 South Eddy Street",
    "zip": "79772",
    "lat": 31.417283,
    "lng": -103.5006198
  },
  {
    "name": "City Produce Company, Inc - #2",
    "city": "Lone Grove",
    "state": "OK",
    "address": "16638 U.S. 70",
    "zip": "73443",
    "lat": 34.1734817,
    "lng": -97.2581214
  },
  {
    "name": "Yoke's Fresh Market - #10",
    "city": "Mead",
    "state": "WA",
    "address": "14202 North Market Street",
    "zip": "99021",
    "lat": 47.7863788,
    "lng": -117.3507519
  },
  {
    "name": "Kesler's Market - Kesler's Market",
    "city": "Blackfoot",
    "state": "ID",
    "address": "925 West Bridge Street",
    "zip": "83221",
    "lat": 43.1936915,
    "lng": -112.3566562
  },
  {
    "name": "ARO - Murray",
    "city": "Murray",
    "state": "UT",
    "address": "5632 South 900 East",
    "zip": "84121",
    "lat": 40.6487272,
    "lng": -111.86714
  },
  {
    "name": "G.E. Foodland - #51",
    "city": "Dallas",
    "state": "TX",
    "address": "8411 Lake June Road",
    "zip": "75217",
    "lat": 32.7350751,
    "lng": -96.6755225
  },
  {
    "name": "Village Market - Village Market",
    "city": "Scituate",
    "state": "MA",
    "address": "71 Front St",
    "zip": "02066",
    "lat": 42.1940424,
    "lng": -70.7267901
  },
  {
    "name": "Porter's - Andrews",
    "city": "Andrews",
    "state": "TX",
    "address": "1201 North Main Street",
    "zip": "79714",
    "lat": 32.331047,
    "lng": -102.5517644
  },
  {
    "name": "Eden Shurfine - Eden Shurfine",
    "city": "Eden",
    "state": "NY",
    "address": "8081 N Main St",
    "zip": "14057",
    "lat": 42.6659192,
    "lng": -78.8861194
  },
  {
    "name": "Piggly Wiggly 112 and 115 - #112",
    "city": "Ashville",
    "state": "AL",
    "address": "35771 U.S. 231",
    "zip": "35953",
    "lat": 33.8470045,
    "lng": -86.2737937
  },
  {
    "name": "Super King Markets - #7",
    "city": "Santa Ana",
    "state": "CA",
    "address": "2741 West MacArthur Boulevard",
    "zip": "92704",
    "lat": 33.7012167,
    "lng": -117.9057778
  },
  {
    "name": "Cedaredge Foodtown - Cedaredge Foodtown",
    "city": "Cedaredge",
    "state": "CO",
    "address": "210 Southeast Independence Avenue",
    "zip": "81413",
    "lat": 38.8916144,
    "lng": -107.9267966
  },
  {
    "name": "B&R Stores - #28",
    "city": "Grand Island",
    "state": "NE",
    "address": "710 West State Street",
    "zip": "68801",
    "lat": 40.9385142,
    "lng": -98.3557102
  },
  {
    "name": "Fareway Stores - 195",
    "city": "Monmouth",
    "state": "IL",
    "address": "1181 North 6th Street",
    "zip": "61462",
    "lat": 40.9247605,
    "lng": -90.6403635
  },
  {
    "name": "Velasquez Group L.P. - Stigler",
    "city": "Stigler",
    "state": "OK",
    "address": "208 West Main Street",
    "zip": "74462",
    "lat": 35.2543009,
    "lng": -95.1272379
  },
  {
    "name": "MyTown Marketplace - Highland Falls",
    "city": "Highland Falls",
    "state": "NY",
    "address": "198 Main St",
    "zip": "10928",
    "lat": 41.3660113,
    "lng": -73.96505
  },
  {
    "name": "MyTown Marketplace - Rosendale",
    "city": "Kingston",
    "state": "NY",
    "address": "1155 NY-32",
    "zip": "12401",
    "lat": 41.8492112,
    "lng": -74.0761884
  },
  {
    "name": "B&R Stores - #4",
    "city": "Lincoln",
    "state": "NE",
    "address": "233 North 48th Street",
    "zip": "68504",
    "lat": 40.815419,
    "lng": -96.6556889
  },
  {
    "name": "B&R Stores - #20",
    "city": "Omaha",
    "state": "NE",
    "address": "5710 South 144th Street",
    "zip": "68137",
    "lat": 41.2011856,
    "lng": -96.1418254
  },
  {
    "name": "South Dayton Supermarket - South Dayton Supermarket",
    "city": "South Dayton",
    "state": "NY",
    "address": "303 Pine St",
    "zip": "14138",
    "lat": 42.3617622,
    "lng": -79.051569
  },
  {
    "name": "Ream's Food Stores - #12",
    "city": "Cottonwood Heights",
    "state": "UT",
    "address": "2396 Fort Union Boulevard",
    "zip": "84121",
    "lat": 40.6238859,
    "lng": -111.8223536
  },
  {
    "name": "Ream's Food Stores - #15",
    "city": "Sandy",
    "state": "UT",
    "address": "8725 Highland Drive",
    "zip": "84093",
    "lat": 40.5931339,
    "lng": -111.8313366
  },
  {
    "name": "Gillis Enterprises LLC - #187",
    "city": "Greenwood",
    "state": "SC",
    "address": "1160 Main St S",
    "zip": "29646",
    "lat": 34.1797112,
    "lng": -82.1558101
  },
  {
    "name": "Stauffers of Kissel Hill - Lititz",
    "city": "Lititz",
    "state": "PA",
    "address": "9328",
    "zip": "17543",
    "lat": 40.1279824,
    "lng": -76.3076932
  },
  {
    "name": "ARO - 70th",
    "city": "Cottonwood Heights",
    "state": "UT",
    "address": "2029 7000 South",
    "zip": "84121",
    "lat": 40.6248422,
    "lng": -111.8328174
  },
  {
    "name": "ARO - St. George",
    "city": "St. George",
    "state": "UT",
    "address": "1930 West Sunset Boulevard",
    "zip": "84770",
    "lat": 37.1238915,
    "lng": -113.6249353
  },
  {
    "name": "ARO - Hurricane",
    "city": "Hurricane",
    "state": "UT",
    "address": "1120 State Street",
    "zip": "84737",
    "lat": 37.1774938,
    "lng": -113.3091359
  },
  {
    "name": "ARO - Cedar City",
    "city": "Cedar City",
    "state": "UT",
    "address": "150 North Main Street",
    "zip": "84720",
    "lat": 37.6801145,
    "lng": -113.0605055
  },
  {
    "name": "Melon Vine Food Store - Melon Vine Food Store",
    "city": "Green River",
    "state": "UT",
    "address": "76 Broadway",
    "zip": "84525",
    "lat": 38.9945401,
    "lng": -110.1656667
  },
  {
    "name": "Bowman's Market - Bowman's Market",
    "city": "Kaysville",
    "state": "UT",
    "address": "326 Main Street",
    "zip": "84037",
    "lat": 41.0415285,
    "lng": -111.9407912
  },
  {
    "name": "El Ahorro Supermarket - #1",
    "city": "Houston",
    "state": "TX",
    "address": "10050 Long Point Rd",
    "zip": "77055",
    "lat": 29.7949954,
    "lng": -95.5421241
  },
  {
    "name": "El Ahorro Supermarket - Food City #2",
    "city": "Victoria",
    "state": "TX",
    "address": "2502 N Laurent St",
    "zip": "77901",
    "lat": 28.8175112,
    "lng": -96.9908036
  },
  {
    "name": "El Ahorro Supermarket - #15",
    "city": "Houston",
    "state": "TX",
    "address": "6910 Capitol St",
    "zip": "77011",
    "lat": 29.7345083,
    "lng": -95.3043287
  },
  {
    "name": "El Ahorro Supermarket - #23",
    "city": "Pasadena",
    "state": "TX",
    "address": "2211 Southmore Ave",
    "zip": "77502",
    "lat": 29.6921938,
    "lng": -95.1814636
  },
  {
    "name": "Piggly Wiggly 234 and 236 - #236",
    "city": "Sylacauga",
    "state": "AL",
    "address": "1351 West Fort Williams Street",
    "zip": "35150",
    "lat": 33.1647239,
    "lng": -86.2731087
  },
  {
    "name": "Fareway Stores - 479",
    "city": "Independence",
    "state": "IA",
    "address": "1400 3rd Avenue Southeast",
    "zip": "50644",
    "lat": 42.455877,
    "lng": -91.8887098
  },
  {
    "name": "Bashas' - 043",
    "city": "Sun Lakes",
    "state": "AZ",
    "address": "10325 East Riggs Road",
    "zip": "85248",
    "lat": 33.217457,
    "lng": -111.859603
  },
  {
    "name": "ARO - Ogden",
    "city": "Ogden",
    "state": "UT",
    "address": "325 36th Street",
    "zip": "84405",
    "lat": 41.1964056,
    "lng": -111.9729892
  },
  {
    "name": "ARO - Provo 2",
    "city": "Provo",
    "state": "UT",
    "address": "1400 North State Street",
    "zip": "84604",
    "lat": 40.2531539,
    "lng": -111.6663265
  },
  {
    "name": "El Ahorro Supermarket - #18",
    "city": "Houston",
    "state": "TX",
    "address": "11214 Beechnut St",
    "zip": "77072",
    "lat": 29.6887792,
    "lng": -95.5757581
  },
  {
    "name": "Reynolds Market - Glasgow",
    "city": "Glasgow",
    "state": "MT",
    "address": "213 Klein Avenue",
    "zip": "59230",
    "lat": 48.1947257,
    "lng": -106.6308505
  },
  {
    "name": "Piggly Wiggly - Tuscaloosa - #255",
    "city": "Tuscaloosa",
    "state": "AL",
    "address": "1503 Culver Road",
    "zip": "35401",
    "lat": 33.1998329,
    "lng": -87.5892222
  },
  {
    "name": "Reynolds Market - Sidney",
    "city": "Sidney",
    "state": "MT",
    "address": "404 North Central Avenue",
    "zip": "59270",
    "lat": 47.7199871,
    "lng": -104.1562997
  },
  {
    "name": "El Ahorro Supermarket - #76",
    "city": "Pasadena",
    "state": "TX",
    "address": "6500 Spencer Hwy #150",
    "zip": "77505",
    "lat": 29.6641493,
    "lng": -95.1392162
  },
  {
    "name": "ARO - Price",
    "city": "Price",
    "state": "UT",
    "address": "760 West Price River Drive",
    "zip": "84501",
    "lat": 39.5994131,
    "lng": -110.8241857
  },
  {
    "name": "ARO - Draper",
    "city": "Draper",
    "state": "UT",
    "address": "1212 Draper Parkway",
    "zip": "84020",
    "lat": 40.5274218,
    "lng": -111.8561492
  },
  {
    "name": "El Ahorro Supermarket - #4",
    "city": "Houston",
    "state": "TX",
    "address": "3107 Blalock Rd",
    "zip": "77080",
    "lat": 29.822549,
    "lng": -95.5235106
  },
  {
    "name": "Fareway Stores - 183",
    "city": "Des Moines",
    "state": "IA",
    "address": "4313 Fleur Drive",
    "zip": "50315",
    "lat": 41.544935,
    "lng": -93.6436791
  },
  {
    "name": "El Ahorro Supermarket - #5",
    "city": "Houston",
    "state": "TX",
    "address": "4725 Telephone Rd",
    "zip": "77087",
    "lat": 29.6918367,
    "lng": -95.2982438
  },
  {
    "name": "Ridley's Family Markets - Gooding",
    "city": "Gooding",
    "state": "ID",
    "address": "1427 Main Street",
    "zip": "83330",
    "lat": 42.9305948,
    "lng": -114.7137897
  },
  {
    "name": "El Rancho - #28",
    "city": "Farmers Branch",
    "state": "TX",
    "address": "2770 Valwood Parkway",
    "zip": "75234",
    "lat": 32.9373758,
    "lng": -96.8866631
  },
  {
    "name": "B&R Stores - #7",
    "city": "Hastings",
    "state": "NE",
    "address": "611 North Burlington Avenue",
    "zip": "68901",
    "lat": 40.5892823,
    "lng": -98.3923705
  },
  {
    "name": "Bashas' - 018",
    "city": "Flagstaff",
    "state": "AZ",
    "address": "2700 South Woodlands Village Boulevard",
    "zip": "86001",
    "lat": 35.1764629,
    "lng": -111.6647683
  },
  {
    "name": "Bashas' - 049",
    "city": "Camp Verde",
    "state": "AZ",
    "address": "650 Finnie Flat Road",
    "zip": "86322",
    "lat": 34.5656934,
    "lng": -111.8649651
  },
  {
    "name": "Bashas' - 060",
    "city": "Nogales",
    "state": "AZ",
    "address": "450 North Grand Court Plaza",
    "zip": "85621",
    "lat": 31.3389233,
    "lng": -110.9373447
  },
  {
    "name": "Piggly Wiggly - Tuscaloosa - #252",
    "city": "Northport",
    "state": "AL",
    "address": "2001 Lurleen B Wallace Boulevard",
    "zip": "35476",
    "lat": 33.2298143,
    "lng": -87.5756068
  },
  {
    "name": "Piggly Wiggly - Danny Manning - #474",
    "city": "Foley",
    "state": "AL",
    "address": "1200 South McKenzie Street",
    "zip": "36535",
    "lat": 30.392867,
    "lng": -87.685168
  },
  {
    "name": "Fareway Stores - 554",
    "city": "Washington",
    "state": "IA",
    "address": "301 North Marion Avenue",
    "zip": "52353",
    "lat": 41.3021556,
    "lng": -91.6938382
  },
  {
    "name": "Fareway Stores - 815",
    "city": "Cresco",
    "state": "IA",
    "address": "112 South Elm Street",
    "zip": "52136",
    "lat": 43.3720291,
    "lng": -92.1175345
  },
  {
    "name": "Swensen's Markets - #4",
    "city": "Twin Falls",
    "state": "ID",
    "address": "115 Addison Avenue",
    "zip": "83301",
    "lat": 42.5634317,
    "lng": -114.4790851
  },
  {
    "name": "Supermercado La Villita - Supermercado La Villita",
    "city": "Rogers",
    "state": "AR",
    "address": "300 South 8th Street",
    "zip": "72756",
    "lat": 36.3313326,
    "lng": -94.1268297
  },
  {
    "name": "El Ahorro Supermarket - #04",
    "city": "Balcones Heights",
    "state": "TX",
    "address": "100 Crossroads Boulevard",
    "zip": "78201",
    "lat": 29.4897713,
    "lng": -98.5489268
  },
  {
    "name": "Super King Markets - #1",
    "city": "Anaheim",
    "state": "CA",
    "address": "10500 Magnolia Avenue",
    "zip": "92804",
    "lat": 33.8097987,
    "lng": -117.9745686
  },
  {
    "name": "Ream's Springville Market - Ream's Springville Market",
    "city": "Springville",
    "state": "UT",
    "address": "759 East 400 South",
    "zip": "84663",
    "lat": 40.161443,
    "lng": -111.596953
  },
  {
    "name": "Ridley's Family Markets - Blackfoot",
    "city": "Blackfoot",
    "state": "ID",
    "address": "1295 Parkway Drive",
    "zip": "83221",
    "lat": 43.1968689,
    "lng": -112.3619176
  },
  {
    "name": "Piggly Wiggly 181 - 181",
    "city": "Canton",
    "state": "MS",
    "address": "110 East Academy Street",
    "zip": "39046",
    "lat": 32.6094586,
    "lng": -90.0341844
  },
  {
    "name": "Fareway Stores - 166",
    "city": "Anamosa",
    "state": "IA",
    "address": "402 East Main Street",
    "zip": "52205",
    "lat": 42.1085214,
    "lng": -91.2815098
  },
  {
    "name": "Bashas' - 111",
    "city": "Sierra Vista",
    "state": "AZ",
    "address": "85 Arizona 92",
    "zip": "85635",
    "lat": 31.5532107,
    "lng": -110.2553061
  },
  {
    "name": "ARO - 39th South",
    "city": "Salt Lake City",
    "state": "UT",
    "address": "3865 South 2300 East",
    "zip": "84109",
    "lat": 40.6875171,
    "lng": -111.823136
  },
  {
    "name": "ARO - West Jordan",
    "city": "West Jordan",
    "state": "UT",
    "address": "7859 3200 West",
    "zip": "84088",
    "lat": 40.6087042,
    "lng": -111.9654168
  },
  {
    "name": "Rio Grande Food Store - Rio Grande Food Store",
    "city": "Canutillo",
    "state": "TX",
    "address": "7240 Doniphan Drive",
    "zip": "79835",
    "lat": 31.9197482,
    "lng": -106.60012
  },
  {
    "name": "Food City Supermarkets - Fox Plaza",
    "city": "El Paso",
    "state": "TX",
    "address": "5400 Alameda Avenue",
    "zip": "79905",
    "lat": 31.7669893,
    "lng": -106.4253122
  },
  {
    "name": "Fareway Stores - 049",
    "city": "Papillion",
    "state": "NE",
    "address": "1325 Jersey Street",
    "zip": "68046",
    "lat": 41.1754156,
    "lng": -96.0267168
  },
  {
    "name": "Bear Lake Market - Bear Lake Market",
    "city": "Garden City",
    "state": "UT",
    "address": "25 North Bear Lake Boulevard",
    "zip": "84028",
    "lat": 41.9470249,
    "lng": -111.3938367
  },
  {
    "name": "Bashas' - 007",
    "city": "Scottsdale",
    "state": "AZ",
    "address": "8035 East Indian School Road",
    "zip": "85251",
    "lat": 33.4934768,
    "lng": -111.9080121
  },
  {
    "name": "Bashas' - 030",
    "city": "Kingman",
    "state": "AZ",
    "address": "3360 East Andy Devine Avenue",
    "zip": "86401",
    "lat": 35.2207176,
    "lng": -114.0051288
  },
  {
    "name": "Ridley's Family Markets - Tremonton",
    "city": "Tremonton",
    "state": "UT",
    "address": "74 South 100 East",
    "zip": "84337",
    "lat": 41.7110041,
    "lng": -112.1649109
  },
  {
    "name": "El Rancho - #31",
    "city": "Houston",
    "state": "TX",
    "address": "11210 North Freeway",
    "zip": "77037",
    "lat": 29.9281197,
    "lng": -95.4104007
  },
  {
    "name": "Fareway Stores - 531",
    "city": "Algona",
    "state": "IA",
    "address": "1905 U.S. 18",
    "zip": "50511",
    "lat": 43.0828051,
    "lng": -94.2141325
  },
  {
    "name": "Gene's Heartland Foods - Eudora",
    "city": "Eudora",
    "state": "KS",
    "address": "1402 Church Street",
    "zip": "66025",
    "lat": 38.9353175,
    "lng": -95.0949307
  },
  {
    "name": "Logan's Market - Filer",
    "city": "Filer",
    "state": "ID",
    "address": "130 U.S. 30",
    "zip": "83328",
    "lat": 42.5649435,
    "lng": -114.6050227
  },
  {
    "name": "Londonderry Village Market - Londonderry Village Market",
    "city": "Londonderry",
    "state": "VT",
    "address": "5700 Vermont 100",
    "zip": "05148",
    "lat": 43.2281531,
    "lng": -72.8152523
  },
  {
    "name": "ARO - Richfield",
    "city": "Richfield",
    "state": "UT",
    "address": "250 South Main Street",
    "zip": "84701",
    "lat": 38.7643683,
    "lng": -112.0862011
  },
  {
    "name": "G.E. Foodland - #09",
    "city": "Fort Worth",
    "state": "TX",
    "address": "1524 Northwest 25th Street",
    "zip": "76164",
    "lat": 32.7907624,
    "lng": -97.3669193
  },
  {
    "name": "Fareway Stores - 879",
    "city": "Belmond",
    "state": "IA",
    "address": "512 River Avenue North",
    "zip": "50421",
    "lat": 42.8498354,
    "lng": -93.6167997
  },
  {
    "name": "Fareway Stores - 508",
    "city": "Fort Dodge",
    "state": "IA",
    "address": "1231 1st Avenue South",
    "zip": "50501",
    "lat": 42.5044493,
    "lng": -94.1812959
  },
  {
    "name": "Sawtooth Food Town - Sawtooth Food Town",
    "city": "Shoshone",
    "state": "ID",
    "address": "904 South Greenwood Street",
    "zip": "83352",
    "lat": 42.9287635,
    "lng": -114.4121202
  },
  {
    "name": "John's Marketplace - John's Marketplace",
    "city": "Salt Lake City",
    "state": "UT",
    "address": "4141 South Redwood Road",
    "zip": "84123",
    "lat": 40.6812571,
    "lng": -111.937627
  },
  {
    "name": "Logan's Market - Redmond",
    "city": "Redmond",
    "state": "OR",
    "address": "900 Southwest 23rd Street",
    "zip": "97756",
    "lat": 44.2679842,
    "lng": -121.1934962
  },
  {
    "name": "Davis Food & Drug - #1",
    "city": "Vernal",
    "state": "UT",
    "address": "575 West Main Street",
    "zip": "84078",
    "lat": 40.4545796,
    "lng": -109.5390503
  },
  {
    "name": "Valley Market - Thayne",
    "city": "Thayne",
    "state": "WY",
    "address": "101352 U.S. 89",
    "zip": "83127",
    "lat": 42.9392752,
    "lng": -111.006759
  },
  {
    "name": "Davis Food & Drug - #3",
    "city": "West Valley City",
    "state": "UT",
    "address": "3765 Constitution Boulevard",
    "zip": "84119",
    "lat": 40.6902668,
    "lng": -111.9569068
  },
  {
    "name": "Bashas' - 002",
    "city": "Mesa",
    "state": "AZ",
    "address": "339 East Brown Road",
    "zip": "85201",
    "lat": 33.4352456,
    "lng": -111.8232451
  },
  {
    "name": "Stewart's Marketplace - Castle Dale",
    "city": "Castle Dale",
    "state": "UT",
    "address": "621 East Main Street",
    "zip": "84513",
    "lat": 39.211824,
    "lng": -111.0060064
  },
  {
    "name": "Logan's Market - Marsing",
    "city": "Marsing",
    "state": "ID",
    "address": "801 Main Street",
    "zip": "83639",
    "lat": 43.5450765,
    "lng": -116.8130969
  },
  {
    "name": "Bashas' - 152",
    "city": "Phoenix",
    "state": "AZ",
    "address": "4727 East Southern Avenue",
    "zip": "85042",
    "lat": 33.3927663,
    "lng": -111.9792615
  },
  {
    "name": "Bashas' - 120",
    "city": "Peoria",
    "state": "AZ",
    "address": "7586 West Thunderbird Road",
    "zip": "85381",
    "lat": 33.610293,
    "lng": -112.222018
  },
  {
    "name": "Piggly Wiggly 266 - #266",
    "city": "McCalla",
    "state": "AL",
    "address": "4750 Eastern Valley Road",
    "zip": "35111",
    "lat": 33.3286909,
    "lng": -86.9984607
  },
  {
    "name": "ARO - Park City",
    "city": "Park City",
    "state": "UT",
    "address": "1760 Park Avenue",
    "zip": "84060",
    "lat": 40.6595427,
    "lng": -111.5066791
  },
  {
    "name": "Khoury's Market Place - Winnemucca",
    "city": "Winnemucca",
    "state": "NV",
    "address": "1041 Grass Valley Road",
    "zip": "89445",
    "lat": 40.9599796,
    "lng": -117.7368805
  },
  {
    "name": "ARO - East St. George",
    "city": "St. George",
    "state": "UT",
    "address": "2928 East Mall Drive",
    "zip": "84790",
    "lat": 37.0942273,
    "lng": -113.5243018
  },
  {
    "name": "Ridley's Family Markets - Weiser",
    "city": "Weiser",
    "state": "ID",
    "address": "1401 East 6th Street",
    "zip": "83672",
    "lat": 44.2564349,
    "lng": -116.9596413
  },
  {
    "name": "El Rancho - #08",
    "city": "Dallas",
    "state": "TX",
    "address": "1515 South Buckner Boulevard",
    "zip": "75217",
    "lat": 32.7383658,
    "lng": -96.6843199
  },
  {
    "name": "G.E. Foodland - #54",
    "city": "Waxahachie",
    "state": "TX",
    "address": "610 U.S. 77",
    "zip": "75165",
    "lat": 32.3926861,
    "lng": -96.8468412
  },
  {
    "name": "G.E. Foodland - #53",
    "city": "Forest Hill",
    "state": "TX",
    "address": "3320 Mansfield Highway",
    "zip": "76119",
    "lat": 32.6813717,
    "lng": -97.277559
  },
  {
    "name": "Bashas' - 113",
    "city": "Phoenix",
    "state": "AZ",
    "address": "731 East Union Hills Drive",
    "zip": "85024",
    "lat": 33.6535259,
    "lng": -112.0642482
  },
  {
    "name": "Bashas' - 015",
    "city": "Phoenix",
    "state": "AZ",
    "address": "10631 North 32nd Street",
    "zip": "85028",
    "lat": 33.5833911,
    "lng": -112.0120202
  },
  {
    "name": "Bashas' - 047",
    "city": "Fountain Hills",
    "state": "AZ",
    "address": "16605 East Palisades Boulevard",
    "zip": "85268",
    "lat": 33.6076231,
    "lng": -111.7220604
  },
  {
    "name": "Ideal Market - Homer City",
    "city": "Homer City",
    "state": "PA",
    "address": "125 W Elm St",
    "zip": "15748",
    "lat": 40.5410841,
    "lng": -79.1637599
  },
  {
    "name": "Julesburg Family Market - Julesburg Family Market",
    "city": "Julesburg",
    "state": "CO",
    "address": "222 Cedar Street",
    "zip": "80737",
    "lat": 40.9882785,
    "lng": -102.2631621
  },
  {
    "name": "Fareway Stores - 841",
    "city": "Red Oak",
    "state": "IA",
    "address": "811 North Broadway Street",
    "zip": "51566",
    "lat": 41.0124372,
    "lng": -95.2340057
  },
  {
    "name": "Fareway Stores - 705",
    "city": "Clear Lake",
    "state": "IA",
    "address": "910 U.S. 18",
    "zip": "50428",
    "lat": 43.1431641,
    "lng": -93.4008724
  },
  {
    "name": "Fareway Stores - 683",
    "city": "Winterset",
    "state": "IA",
    "address": "719 Iowa 92",
    "zip": "50273",
    "lat": 41.3458884,
    "lng": -94.0225347
  },
  {
    "name": "Fareway Stores - 114",
    "city": "Dubuque",
    "state": "IA",
    "address": "2050 John F Kennedy Road",
    "zip": "52002",
    "lat": 42.5075239,
    "lng": -90.719299
  },
  {
    "name": "Porter's - Van Horn",
    "city": "Van Horn",
    "state": "TX",
    "address": "1807 West Broadway Street",
    "zip": "79855",
    "lat": 31.0377902,
    "lng": -104.8557477
  },
  {
    "name": "Gregg's Food - Gregg's Food",
    "city": "Artesia",
    "state": "NM",
    "address": "1500 North 1st Street",
    "zip": "88210",
    "lat": 32.8568377,
    "lng": -104.399242
  },
  {
    "name": "Fareway Stores - 559",
    "city": "Iowa Falls",
    "state": "IA",
    "address": "500 Iowa Street",
    "zip": "50126",
    "lat": 42.522669,
    "lng": -93.2637107
  },
  {
    "name": "Fareway Stores - 699",
    "city": "Osceola",
    "state": "IA",
    "address": "215 South Main Street",
    "zip": "50213",
    "lat": 41.032345,
    "lng": -93.7646988
  },
  {
    "name": "Fareway Stores - 589",
    "city": "Decorah",
    "state": "IA",
    "address": "103 East Main Street",
    "zip": "52101",
    "lat": 43.3028241,
    "lng": -91.7856089
  },
  {
    "name": "Farmers Market - Bloomfield",
    "city": "Bloomfield",
    "state": "NM",
    "address": "401 West Broadway Avenue",
    "zip": "87413",
    "lat": 36.710551,
    "lng": -107.9840361
  },
  {
    "name": "Logan's Venture Foods - Top Value",
    "city": "Monte Vista",
    "state": "CO",
    "address": "222 Solar Avenue",
    "zip": "81144",
    "lat": 37.5797906,
    "lng": -106.1614937
  },
  {
    "name": "Yoke's Fresh Market - #17",
    "city": "Post Falls",
    "state": "ID",
    "address": "1501 East Seltice Way",
    "zip": "83854",
    "lat": 47.7117828,
    "lng": -116.9259473
  },
  {
    "name": "Fareway Stores - 102",
    "city": "Fairmont",
    "state": "MN",
    "address": "500 South State Street",
    "zip": "56031",
    "lat": 43.6481714,
    "lng": -94.447336
  },
  {
    "name": "Piggly Wiggly 358 - #358",
    "city": "Blakely",
    "state": "GA",
    "address": "113 North Main Street",
    "zip": "39823",
    "lat": 31.3796141,
    "lng": -84.935545
  },
  {
    "name": "ARO - Tooele",
    "city": "Tooele",
    "state": "UT",
    "address": "972 North Main Street",
    "zip": "84074",
    "lat": 40.549389,
    "lng": -112.2959671
  },
  {
    "name": "Fareway Stores - 178",
    "city": "Harrisburg",
    "state": "SD",
    "address": "300 East Willow Street",
    "zip": "57032",
    "lat": 43.4315164,
    "lng": -96.7053336
  },
  {
    "name": "Fareway Stores - 648",
    "city": "Ottumwa",
    "state": "IA",
    "address": "1325 Albia Road",
    "zip": "52501",
    "lat": 41.0103554,
    "lng": -92.4401753
  },
  {
    "name": "Schiel's Family Markets - George Ave",
    "city": "Wilkes-Barre",
    "state": "PA",
    "address": "7 George Avenue",
    "zip": "18705",
    "lat": 41.2593213,
    "lng": -75.8503996
  },
  {
    "name": "Bashas' - 093",
    "city": "Avondale",
    "state": "AZ",
    "address": "1450 North Dysart Road",
    "zip": "85323",
    "lat": 33.449136,
    "lng": -112.342075
  },
  {
    "name": "Elk County Foods - Ridgway",
    "city": "Ridgway",
    "state": "PA",
    "address": "1 Baker Alley",
    "zip": "15853",
    "lat": 41.4232801,
    "lng": -78.7285786
  },
  {
    "name": "ARO - Providence",
    "city": "Providence",
    "state": "UT",
    "address": "50 Utah 165",
    "zip": "84332",
    "lat": 41.7089444,
    "lng": -111.8323788
  },
  {
    "name": "Ridley's Family Markets - Morgan",
    "city": "Morgan",
    "state": "UT",
    "address": "275 East 300 North",
    "zip": "84050",
    "lat": 41.0443815,
    "lng": -111.6792078
  },
  {
    "name": "B&R Stores - #27",
    "city": "Lincoln",
    "state": "NE",
    "address": "840 Fallbrook Boulevard",
    "zip": "68521",
    "lat": 40.8780864,
    "lng": -96.7351826
  },
  {
    "name": "Gerrity's Supermarket - South Main",
    "city": "Scranton",
    "state": "PA",
    "address": "702 South Main Avenue",
    "zip": "18504",
    "lat": 41.4056091,
    "lng": -75.6868978
  },
  {
    "name": "Tozier's Family Market - Tozier's Family Market",
    "city": "Searsport",
    "state": "ME",
    "address": "22 E Main St",
    "zip": "04974",
    "lat": 44.4587755,
    "lng": -68.9263316
  },
  {
    "name": "El Ahorro Supermarket - #17",
    "city": "Houston",
    "state": "TX",
    "address": "8201 Broadway St",
    "zip": "77061",
    "lat": 29.6735447,
    "lng": -95.2760761
  },
  {
    "name": "Ridley's Family Markets - Laramie",
    "city": "Laramie",
    "state": "WY",
    "address": "3112 Grand Avenue",
    "zip": "82070",
    "lat": 41.3080357,
    "lng": -105.5557724
  },
  {
    "name": "El Ahorro Supermarket - #19",
    "city": "Houston",
    "state": "TX",
    "address": "8002 S Gessner Rd",
    "zip": "77036",
    "lat": 29.6906419,
    "lng": -95.5355636
  },
  {
    "name": "Buy for Less - #4150",
    "city": "Oklahoma City",
    "state": "OK",
    "address": "415 Southwest 59th Street",
    "zip": "73109",
    "lat": 35.4062078,
    "lng": -97.5202246
  },
  {
    "name": "Schiel's Family Markets - Hanover St",
    "city": "Wilkes-Barre",
    "state": "PA",
    "address": "30 Hanover Street",
    "zip": "18702",
    "lat": 41.2347732,
    "lng": -75.9028621
  },
  {
    "name": "Lee's Marketplace - Foxboro",
    "city": "North Salt Lake",
    "state": "UT",
    "address": "725 North Redwood Road",
    "zip": "84054",
    "lat": 40.8544211,
    "lng": -111.9311963
  },
  {
    "name": "Lee's Marketplace - North Ogden",
    "city": "Ogden",
    "state": "UT",
    "address": "2645 North Washington Boulevard",
    "zip": "84414",
    "lat": 41.306948,
    "lng": -111.9708918
  },
  {
    "name": "Big Star Supermarket - #305",
    "city": "Florence",
    "state": "AL",
    "address": "4695 County Road 47",
    "zip": "35634",
    "lat": 34.8768552,
    "lng": -87.6208328
  },
  {
    "name": "Piggly Wiggly 6, 15, 16, and 20 - #6",
    "city": "Booneville",
    "state": "MS",
    "address": "103 South 2nd Street",
    "zip": "38829",
    "lat": 34.6562772,
    "lng": -88.5668114
  },
  {
    "name": "Parowan Market - Parowan Market",
    "city": "Parowan",
    "state": "UT",
    "address": "740 West 200 South",
    "zip": "84761",
    "lat": 37.8392079,
    "lng": -112.8414132
  },
  {
    "name": "Ridley's Family Markets - Sheridan",
    "city": "Sheridan",
    "state": "WY",
    "address": "169 Coffeen Avenue",
    "zip": "82801",
    "lat": 44.7945554,
    "lng": -106.9523156
  },
  {
    "name": "Mountain Fresh - Mountain Fresh",
    "city": "Hunlock Creek",
    "state": "PA",
    "address": "2203 Pennsylvania 118",
    "zip": "18621",
    "lat": 41.3081218,
    "lng": -76.1128777
  },
  {
    "name": "Lee's Marketplace - Smithfield",
    "city": "Smithfield",
    "state": "UT",
    "address": "850 Main Street",
    "zip": "84335",
    "lat": 41.8189604,
    "lng": -111.8316132
  },
  {
    "name": "Terrel's Market - Terrel's Market",
    "city": "Mt Pleasant",
    "state": "UT",
    "address": "1050 State Street",
    "zip": "84647",
    "lat": 39.5320917,
    "lng": -111.4634537
  },
  {
    "name": "Kent's Market - Plain City",
    "city": "Plain City",
    "state": "UT",
    "address": "3673 West 2600 North",
    "zip": "84404",
    "lat": 41.3033148,
    "lng": -112.0684923
  },
  {
    "name": "Fareway Stores - 167",
    "city": "Johnston",
    "state": "IA",
    "address": "6005 Merle Hay Road",
    "zip": "50131",
    "lat": 41.670132,
    "lng": -93.696619
  },
  {
    "name": "Fareway Stores - 151",
    "city": "Cedar Rapids",
    "state": "IA",
    "address": "3717 1st Avenue Southeast",
    "zip": "52403",
    "lat": 42.0162793,
    "lng": -91.6330897
  },
  {
    "name": "El Rancho - #41",
    "city": "Houston",
    "state": "TX",
    "address": "6160 Highway 6 North",
    "zip": "77084",
    "lat": 29.8699694,
    "lng": -95.643834
  },
  {
    "name": "Quinn's Market - Archbald",
    "city": "Archbald",
    "state": "PA",
    "address": "12 Kennedy Drive",
    "zip": "18403",
    "lat": 41.4918848,
    "lng": -75.5525826
  },
  {
    "name": "Quinn's Market - Peckville",
    "city": "Blakely",
    "state": "PA",
    "address": "1437 Main Street",
    "zip": "18452",
    "lat": 41.4792178,
    "lng": -75.5954379
  },
  {
    "name": "Ridley's Family Markets - Middleton",
    "city": "Middleton",
    "state": "ID",
    "address": "430 East Main Street",
    "zip": "83644",
    "lat": 43.7039769,
    "lng": -116.6172346
  },
  {
    "name": "Ridley's Family Markets - McCall",
    "city": "McCall",
    "state": "ID",
    "address": "411 Deinhard Lane",
    "zip": "83638",
    "lat": 44.899039,
    "lng": -116.0948917
  },
  {
    "name": "Gerrity's Supermarket - Keyser",
    "city": "Scranton",
    "state": "PA",
    "address": "1782 North Keyser Avenue",
    "zip": "18508",
    "lat": 41.445251,
    "lng": -75.6679172
  },
  {
    "name": "Sandy Ridge Market - Sandy Ridge Market",
    "city": "Orbisonia",
    "state": "PA",
    "address": "18851 Sandy Ridge Station",
    "zip": "17243",
    "lat": 40.2474473,
    "lng": -77.8946931
  },
  {
    "name": "Ridley's Family Markets - Ely",
    "city": "Ely",
    "state": "NV",
    "address": "1689 Great Basin Boulevard",
    "zip": "89301",
    "lat": 39.24568,
    "lng": -114.871488
  },
  {
    "name": "B&R Stores - #14",
    "city": "Lincoln",
    "state": "NE",
    "address": "6300 Havelock Avenue",
    "zip": "68507",
    "lat": 40.8578628,
    "lng": -96.6335828
  },
  {
    "name": "Fareway Stores - 034",
    "city": "Iowa City",
    "state": "IA",
    "address": "2765 Commerce Drive",
    "zip": "52240",
    "lat": 41.629628,
    "lng": -91.4817703
  },
  {
    "name": "Fareway Stores - 827",
    "city": "Centerville",
    "state": "IA",
    "address": "305 South 18th Street",
    "zip": "52544",
    "lat": 40.7309786,
    "lng": -92.866517
  },
  {
    "name": "Fareway Stores - 719",
    "city": "Le Mars",
    "state": "IA",
    "address": "115 Plymouth Street West",
    "zip": "51031",
    "lat": 42.7932576,
    "lng": -96.1683825
  },
  {
    "name": "Stokes Market  - Anaconda",
    "city": "Anaconda",
    "state": "MT",
    "address": "1525 Park Avenue",
    "zip": "59711",
    "lat": 46.1324043,
    "lng": -112.9737941
  },
  {
    "name": "Rob's Market - Rob's Market",
    "city": "Hallstead",
    "state": "PA",
    "address": "25058 U.S. 11",
    "zip": "18822",
    "lat": 41.9653834,
    "lng": -75.7392366
  },
  {
    "name": "Bashas' - 165",
    "city": "Tucson",
    "state": "AZ",
    "address": "428 West Valencia Road",
    "zip": "85706",
    "lat": 32.1349508,
    "lng": -110.9763726
  },
  {
    "name": "Yoke's Fresh Market - #5",
    "city": "Kellogg",
    "state": "ID",
    "address": "117 North Hill Street",
    "zip": "83837",
    "lat": 47.5382416,
    "lng": -116.1256246
  },
  {
    "name": "Fareway Stores - 193",
    "city": "Tiffin",
    "state": "IA",
    "address": "500 North Croell Avenue",
    "zip": "52340",
    "lat": 41.7092758,
    "lng": -91.6570259
  },
  {
    "name": "Benedict Thriftway - Benedict Thriftway",
    "city": "Mountain View",
    "state": "WY",
    "address": "950 Wyoming 414",
    "zip": "82939",
    "lat": 41.2801554,
    "lng": -110.3374907
  },
  {
    "name": "The Market at Park City - The Market at Park City",
    "city": "Park City",
    "state": "UT",
    "address": "1500 Snow Creek Drive",
    "zip": "84060",
    "lat": 40.6624538,
    "lng": -111.5090905
  },
  {
    "name": "Ream's Food Stores - #10",
    "city": "Salt Lake City",
    "state": "UT",
    "address": "3665 West 6200 South",
    "zip": "84129",
    "lat": 40.6373834,
    "lng": -111.9789358
  },
  {
    "name": "Karns Foods - Goldsboro",
    "city": "Goldsboro",
    "state": "PA",
    "address": "10 Newberry Commons",
    "zip": "17319",
    "lat": 40.1574768,
    "lng": -76.8201796
  },
  {
    "name": "Ream's Food Stores - #11",
    "city": "West Jordan",
    "state": "UT",
    "address": "2640 9000 South",
    "zip": "84088",
    "lat": 40.5879905,
    "lng": -111.9566972
  },
  {
    "name": "Goulding's Grocery - Goulding's Grocery",
    "city": "Monument Valley",
    "state": "UT",
    "address": "1000 Main St",
    "zip": "84536",
    "lat": 37.0097601,
    "lng": -110.2055157
  },
  {
    "name": "Lee's Marketplace - Logan",
    "city": "Logan",
    "state": "UT",
    "address": "555 East 1400 North",
    "zip": "84341",
    "lat": 41.7589108,
    "lng": -111.8202562
  },
  {
    "name": "Bashas' - 133",
    "city": "Tucson",
    "state": "AZ",
    "address": "3030 East 22nd Street",
    "zip": "85713",
    "lat": 32.2061889,
    "lng": -110.9276584
  }
]